{
    "content": "<?xml version=\"1.0\" encoding=\"UTF-8\" standalone=\"yes\"?> <glossCoreNetwork>     <dateCreated>2015-03-16</dateCreated>     <glossStations>         <station id=\"1\">             <name>Suez (Port Taufig)</name>             <latitude>29.933000</latitude>             <longitude>32.567000</longitude>             <latestPsmsl>1986-12</latestPsmsl>         </station>         <station id=\"2\">             <name>Djibouti</name>             <latitude>11.600000</latitude>             <longitude>43.150000</longitude>             <latestBodc>2012</latestBodc>             <latestPsmsl>2013-12</latestPsmsl>             <latestJasl>2013-06-30</latestJasl>             <latestUhslcFast>2014-08-31</latestUhslcFast>             <latestVliz>2015-03-16</latestVliz>         </station>         <station id=\"3\">             <name>Aden</name>             <latitude>12.783000</latitude>             <longitude>44.983000</longitude>             <latestBodc>2012</latestBodc>             <latestPsmsl>2013-10</latestPsmsl>             <latestPsmslRlr>2013-10</latestPsmslRlr>             <latestJasl>2013-06-30</latestJasl>             <latestUhslcFast>2014-07-31</latestUhslcFast>             <latestVliz>2015-03-16</latestVliz>         </station>         <station id=\"4\">             <name>Salalah</name>             <latitude>17.000000</latitude>             <longitude>54.000000</longitude>             <latestBodc>1998</latestBodc>             <latestPsmsl>2012-09</latestPsmsl>             <latestJasl>2012-12-31</latestJasl>             <latestUhslcFast>2014-08-31</latestUhslcFast>             <latestVliz>2015-03-16</latestVliz>         </station>         <station id=\"6\">             <name>Hafun (Dante)</name>             <latitude>10.450000</latitude>             <longitude>51.250000</longitude>         </station>         <station id=\"7\">             <name>Mogadishu</name>             <latitude>2.017000</latitude>             <longitude>45.333000</longitude>         </station>         <station id=\"8\">             <name>Mombasa</name>             <latitude>-4.050000</latitude>             <longitude>39.667000</longitude>             <latestBodc>1998</latestBodc>             <latestPsmsl>2008-12</latestPsmsl>             <latestPsmslRlr>2008-12</latestPsmslRlr>             <latestJasl>2012-04-03</latestJasl>             <latestUhslcFast>2014-08-31</latestUhslcFast>             <latestVliz>2015-03-16</latestVliz>         </station>         <station id=\"9\">             <name>Mtwara</name>             <latitude>-10.283000</latitude>             <longitude>40.183000</longitude>             <latestPsmsl>1962-08</latestPsmsl>             <latestSonel>2014-11-25</latestSonel>             <latestUhslcFast>2014-07-31</latestUhslcFast>             <latestVliz>2015-03-16</latestVliz>         </station>         <station id=\"10\">             <name>Inhambane</name>             <latitude>-23.917000</latitude>             <longitude>35.500000</longitude>             <latestBodc>2012</latestBodc>             <latestPsmsl>2013-11</latestPsmsl>             <latestSonel>2012-10-18</latestSonel>             <latestJasl>2011-12-31</latestJasl>             <latestUhslcFast>2014-07-31</latestUhslcFast>             <latestVliz>2014-09-09</latestVliz>         </station>         <station id=\"11\">             <name>Pemba</name>             <latitude>-12.967000</latitude>             <longitude>40.483000</longitude>             <latestBodc>2009</latestBodc>             <latestPsmsl>2009-08</latestPsmsl>             <latestSonel>2013-07-21</latestSonel>             <latestJasl>2013-06-28</latestJasl>             <latestUhslcFast>2013-06-28</latestUhslcFast>             <latestVliz>2014-02-21</latestVliz>         </station>         <station id=\"12\">             <name>Exuma</name>             <latitude>23.783000</latitude>             <longitude>-76.100000</longitude>             <latestBodc>1993</latestBodc>             <latestPsmsl>1993-03</latestPsmsl>             <latestJasl>1993-04-23</latestJasl>         </station>         <station id=\"13\">             <name>Durban</name>             <latitude>-29.883000</latitude>             <longitude>31.033000</longitude>             <latestBodc>2007</latestBodc>             <latestPsmsl>2013-12</latestPsmsl>             <latestPsmslRlr>2013-12</latestPsmslRlr>             <latestSonel>2015-03-14</latestSonel>             <latestJasl>2011-08-08</latestJasl>             <latestUhslcFast>2014-09-30</latestUhslcFast>             <latestVliz>2012-01-25</latestVliz>         </station>         <station id=\"15\">             <name>Nosy-Be</name>             <latitude>-13.400000</latitude>             <longitude>48.283000</longitude>             <latestBodc>1989</latestBodc>             <latestPsmsl>1999-12</latestPsmsl>             <latestPsmslRlr>1972-12</latestPsmslRlr>             <latestJasl>2000-01-11</latestJasl>         </station>         <station id=\"17\">             <name>Pointe Des Galets, Reunion Is.</name>             <latitude>-20.933000</latitude>             <longitude>55.300000</longitude>             <latestBodc>1986</latestBodc>             <latestPsmsl>2013-12</latestPsmsl>             <latestPsmslRlr>2013-12</latestPsmslRlr>             <latestJasl>2012-12-31</latestJasl>             <latestUhslcFast>2014-08-30</latestUhslcFast>             <latestVliz>2015-03-16</latestVliz>         </station>         <station id=\"18\">             <name>Port Louis Harbour</name>             <latitude>-20.150000</latitude>             <longitude>57.500000</longitude>             <latestBodc>2011</latestBodc>             <latestPsmsl>2013-12</latestPsmsl>             <latestPsmslRlr>2013-12</latestPsmslRlr>             <latestSonel>2015-03-14</latestSonel>             <latestJasl>2012-04-03</latestJasl>             <latestUhslcFast>2014-08-31</latestUhslcFast>             <latestVliz>2015-03-16</latestVliz>         </station>         <station id=\"19\">             <name>Rodrigues, Port Mathurin</name>             <latitude>-19.683000</latitude>             <longitude>63.417000</longitude>             <latestBodc>2011</latestBodc>             <latestPsmsl>2013-12</latestPsmsl>             <latestPsmslRlr>2013-12</latestPsmslRlr>             <latestSonel>2011-12-10</latestSonel>             <latestJasl>2012-12-31</latestJasl>             <latestUhslcFast>2014-08-31</latestUhslcFast>             <latestVliz>2015-03-16</latestVliz>         </station>         <station id=\"20\">             <name>Marion Is.</name>             <latitude>-46.867000</latitude>             <longitude>37.867000</longitude>             <latestSonel>2015-03-13</latestSonel>             <latestUhslcFast>2014-07-31</latestUhslcFast>             <latestVliz>2015-03-16</latestVliz>         </station>         <station id=\"21\">             <name>Crozet Is.</name>             <latitude>-46.425000</latitude>             <longitude>51.870000</longitude>             <latestBodc>1997</latestBodc>             <latestPsmsl>2001-06</latestPsmsl>             <latestSonel>2015-03-14</latestSonel>             <latestJasl>2001-07-29</latestJasl>             <latestUhslcFast>2001-07-29</latestUhslcFast>         </station>         <station id=\"22\">             <name>Mawson</name>             <latitude>-67.600000</latitude>             <longitude>62.867000</longitude>             <latestBodc>1999</latestBodc>             <latestPsmsl>2009-12</latestPsmsl>             <latestSonel>2015-03-14</latestSonel>             <latestJasl>2009-12-21</latestJasl>             <latestUhslcFast>2009-12-21</latestUhslcFast>         </station>         <station id=\"23\">             <name>Kerguelen Is.</name>             <latitude>-49.345000</latitude>             <longitude>70.220000</longitude>             <latestBodc>2000</latestBodc>             <latestPsmsl>2012-01</latestPsmsl>             <latestSonel>2015-03-14</latestSonel>             <latestJasl>2012-12-31</latestJasl>             <latestUhslcFast>2013-06-03</latestUhslcFast>             <latestVliz>2015-01-03</latestVliz>         </station>         <station id=\"24\">             <name>Saint Paul Is.</name>             <latitude>-38.712000</latitude>             <longitude>77.538000</longitude>             <latestBodc>2000</latestBodc>             <latestPsmsl>2006-12</latestPsmsl>             <latestSonel>2012-04-08</latestSonel>             <latestJasl>2006-12-24</latestJasl>             <latestUhslcFast>2006-12-24</latestUhslcFast>             <latestVliz>2009-09-18</latestVliz>         </station>         <station id=\"25\">             <name>Mirny (Antarctica)</name>             <latitude>-66.550000</latitude>             <longitude>93.017000</longitude>         </station>         <station id=\"26\">             <name>Diego Garcia Is.</name>             <latitude>-7.283000</latitude>             <longitude>72.400000</longitude>             <latestBodc>2009</latestBodc>             <latestPsmsl>2012-03</latestPsmsl>             <latestPsmslRlr>2012-03</latestPsmslRlr>             <latestSonel>2015-01-05</latestSonel>             <latestJasl>2012-04-03</latestJasl>             <latestUhslcFast>2014-08-31</latestUhslcFast>             <latestVliz>2015-03-16</latestVliz>         </station>         <station id=\"27\">             <name>Gan</name>             <latitude>-0.700000</latitude>             <longitude>73.167000</longitude>             <latestBodc>2003</latestBodc>             <latestPsmsl>2012-03</latestPsmsl>             <latestPsmslRlr>2012-03</latestPsmslRlr>             <latestSonel>2014-03-16</latestSonel>             <latestJasl>2012-04-03</latestJasl>             <latestUhslcFast>2014-08-31</latestUhslcFast>             <latestVliz>2015-03-16</latestVliz>         </station>         <station id=\"28\">             <name>Male, Hulule</name>             <latitude>4.167000</latitude>             <longitude>73.500000</longitude>             <latestBodc>2003</latestBodc>             <latestPsmsl>2012-03</latestPsmsl>             <latestPsmslRlr>2012-03</latestPsmslRlr>             <latestSonel>2013-07-28</latestSonel>             <latestJasl>2012-04-03</latestJasl>             <latestUhslcFast>2014-08-31</latestUhslcFast>             <latestVliz>2015-03-16</latestVliz>         </station>         <station id=\"29\">             <name>Minicoy, Laccadive Is.</name>             <latitude>8.283000</latitude>             <longitude>73.050000</longitude>             <latestPsmsl>1977-09</latestPsmsl>             <latestUhslcFast>2014-08-31</latestUhslcFast>             <latestVliz>2015-03-15</latestVliz>         </station>         <station id=\"30\">             <name>Karachi, Manoro Island</name>             <latitude>24.800000</latitude>             <longitude>66.967000</longitude>             <latestBodc>2012</latestBodc>             <latestPsmsl>2013-12</latestPsmsl>             <latestPsmslRlr>2013-12</latestPsmslRlr>             <latestJasl>2013-06-30</latestJasl>             <latestUhslcFast>2014-08-31</latestUhslcFast>             <latestVliz>2015-03-16</latestVliz>         </station>         <station id=\"31\">             <name>Veraval</name>             <latitude>20.900000</latitude>             <longitude>70.367000</longitude>             <latestPsmsl>1983-12</latestPsmsl>             <latestPsmslRlr>1983-12</latestPsmslRlr>         </station>         <station id=\"32\">             <name>Cochin</name>             <latitude>9.967000</latitude>             <longitude>76.267000</longitude>             <latestPsmsl>2007-12</latestPsmsl>             <latestPsmslRlr>2007-12</latestPsmslRlr>             <latestUhslcFast>2014-07-31</latestUhslcFast>             <latestVliz>2015-03-15</latestVliz>         </station>         <station id=\"33\">             <name>Colombo</name>             <latitude>6.933000</latitude>             <longitude>79.850000</longitude>             <latestBodc>1992</latestBodc>             <latestPsmsl>2012-12</latestPsmsl>             <latestJasl>2012-12-31</latestJasl>             <latestUhslcFast>2014-09-30</latestUhslcFast>             <latestVliz>2015-03-16</latestVliz>         </station>         <station id=\"34\">             <name>Chennai/Madras</name>             <latitude>13.100000</latitude>             <longitude>80.300000</longitude>             <latestPsmsl>2010-12</latestPsmsl>             <latestPsmslRlr>2010-12</latestPsmslRlr>             <latestVliz>2015-03-15</latestVliz>         </station>         <station id=\"35\">             <name>Vishakhapatnam</name>             <latitude>17.683000</latitude>             <longitude>83.283000</longitude>             <latestPsmsl>2010-12</latestPsmsl>             <latestPsmslRlr>2010-12</latestPsmslRlr>             <latestUhslcFast>2014-07-31</latestUhslcFast>             <latestVliz>2015-03-15</latestVliz>         </station>         <station id=\"36\">             <name>Chittagong</name>             <latitude>22.333000</latitude>             <longitude>91.833000</longitude>             <latestBodc>1990</latestBodc>             <latestPsmsl>2012-03</latestPsmsl>             <latestPsmslRlr>2000-12</latestPsmslRlr>             <latestJasl>2012-04-03</latestJasl>             <latestUhslcFast>2014-08-31</latestUhslcFast>             <latestVliz>2015-03-16</latestVliz>         </station>         <station id=\"37\">             <name>Akyab (Sittwe)</name>             <latitude>20.150000</latitude>             <longitude>92.900000</longitude>             <latestPsmsl>1942-02</latestPsmsl>             <latestPsmslRlr>1942-02</latestPsmslRlr>             <latestJasl>2012-09-05</latestJasl>             <latestUhslcFast>2014-07-31</latestUhslcFast>             <latestVliz>2014-11-13</latestVliz>         </station>         <station id=\"38\">             <name>Port Blair, Andaman Is.</name>             <latitude>11.683000</latitude>             <longitude>92.767000</longitude>             <latestPsmsl>2010-09</latestPsmsl>             <latestPsmslRlr>1964-12</latestPsmslRlr>             <latestSonel>2015-03-11</latestSonel>             <latestUhslcFast>2014-07-31</latestUhslcFast>             <latestVliz>2015-03-15</latestVliz>         </station>         <station id=\"39\">             <name>Ko Lak</name>             <latitude>11.783000</latitude>             <longitude>99.817000</longitude>             <latestBodc>1989</latestBodc>             <latestPsmsl>2013-12</latestPsmsl>             <latestPsmslRlr>2013-12</latestPsmslRlr>             <latestJasl>2012-12-30</latestJasl>             <latestUhslcFast>2014-08-31</latestUhslcFast>         </station>         <station id=\"40\">             <name>Broome</name>             <latitude>-18.000000</latitude>             <longitude>122.217000</longitude>             <latestBodc>2010</latestBodc>             <latestPsmsl>2013-12</latestPsmsl>             <latestPsmslRlr>2013-12</latestPsmslRlr>             <latestSonel>2015-03-14</latestSonel>             <latestJasl>2012-12-31</latestJasl>             <latestUhslcFast>2014-09-30</latestUhslcFast>             <latestVliz>2015-03-16</latestVliz>         </station>         <station id=\"42\">             <name>Ko Taphao Noi</name>             <latitude>7.833000</latitude>             <longitude>98.433000</longitude>             <latestBodc>1989</latestBodc>             <latestPsmsl>2012-12</latestPsmsl>             <latestPsmslRlr>2012-12</latestPsmslRlr>             <latestJasl>2012-04-03</latestJasl>             <latestUhslcFast>2014-08-31</latestUhslcFast>             <latestVliz>2013-07-25</latestVliz>         </station>         <station id=\"43\">             <name>Pengkalan TLDM Lumut</name>             <latitude>4.233000</latitude>             <longitude>100.617000</longitude>             <latestBodc>1995</latestBodc>             <latestPsmsl>2013-12</latestPsmsl>             <latestPsmslRlr>2013-12</latestPsmslRlr>             <latestJasl>2011-12-31</latestJasl>         </station>         <station id=\"44\">             <name>Keppel Harbour</name>             <latitude>1.467000</latitude>             <longitude>103.833000</longitude>             <latestBodc>1988</latestBodc>             <latestPsmsl>2013-12</latestPsmsl>             <latestPsmslRlr>2013-12</latestPsmslRlr>             <latestSonel>2015-03-14</latestSonel>             <latestJasl>2011-12-31</latestJasl>             <latestUhslcFast>2014-03-31</latestUhslcFast>             <latestVliz>2015-01-28</latestVliz>         </station>         <station id=\"45\">             <name>Padang (Teluk Bayur)</name>             <latitude>-1.000000</latitude>             <longitude>100.367000</longitude>             <latestBodc>1998</latestBodc>             <latestPsmsl>2012-12</latestPsmsl>             <latestSonel>2009-03-25</latestSonel>             <latestJasl>2012-12-31</latestJasl>             <latestUhslcFast>2014-08-31</latestUhslcFast>             <latestVliz>2015-03-16</latestVliz>         </station>         <station id=\"46\">             <name>Cocos Island (Keeling)</name>             <latitude>-12.100000</latitude>             <longitude>96.900000</longitude>             <latestBodc>2010</latestBodc>             <latestPsmsl>2013-12</latestPsmsl>             <latestPsmslRlr>2013-12</latestPsmslRlr>             <latestSonel>2015-03-14</latestSonel>             <latestJasl>2012-12-31</latestJasl>             <latestUhslcFast>2014-09-30</latestUhslcFast>             <latestVliz>2015-03-16</latestVliz>         </station>         <station id=\"47\">             <name>Christmas Island</name>             <latitude>-10.417000</latitude>             <longitude>105.667000</longitude>             <latestBodc>1991</latestBodc>             <latestPsmsl>2009-12</latestPsmsl>             <latestSonel>2015-03-14</latestSonel>             <latestJasl>2009-12-31</latestJasl>             <latestUhslcFast>2011-08-31</latestUhslcFast>             <latestVliz>2015-03-16</latestVliz>         </station>         <station id=\"49\">             <name>Benoa</name>             <latitude>-8.733000</latitude>             <longitude>115.200000</longitude>             <latestBodc>2004</latestBodc>             <latestPsmsl>2012-03</latestPsmsl>             <latestPsmslRlr>2012-03</latestPsmslRlr>             <latestSonel>2015-03-14</latestSonel>             <latestJasl>2012-04-03</latestJasl>             <latestUhslcFast>2014-08-31</latestUhslcFast>             <latestVliz>2015-03-16</latestVliz>         </station>         <station id=\"51\">             <name>Port Hedland</name>             <latitude>-20.317000</latitude>             <longitude>118.567000</longitude>             <latestBodc>2004</latestBodc>             <latestPsmsl>2012-05</latestPsmsl>             <latestPsmslRlr>2012-05</latestPsmslRlr>             <latestJasl>2012-06-03</latestJasl>             <latestUhslcFast>2012-06-03</latestUhslcFast>         </station>         <station id=\"52\">             <name>Carnarvon</name>             <latitude>-24.900000</latitude>             <longitude>113.650000</longitude>             <latestBodc>2004</latestBodc>             <latestPsmsl>2012-12</latestPsmsl>             <latestPsmslRlr>2012-12</latestPsmslRlr>             <latestJasl>2012-12-31</latestJasl>             <latestUhslcFast>2012-12-31</latestUhslcFast>         </station>         <station id=\"53\">             <name>Fremantle</name>             <latitude>-32.050000</latitude>             <longitude>115.733000</longitude>             <latestBodc>2004</latestBodc>             <latestPsmsl>2013-12</latestPsmsl>             <latestPsmslRlr>2013-12</latestPsmslRlr>             <latestSonel>2015-03-14</latestSonel>             <latestJasl>2012-12-31</latestJasl>             <latestUhslcFast>2014-09-30</latestUhslcFast>         </station>         <station id=\"54\">             <name>Esperance</name>             <latitude>-33.867000</latitude>             <longitude>121.900000</longitude>             <latestBodc>2010</latestBodc>             <latestPsmsl>2013-12</latestPsmsl>             <latestPsmslRlr>2013-12</latestPsmslRlr>             <latestSonel>2015-03-14</latestSonel>             <latestJasl>2012-12-31</latestJasl>             <latestUhslcFast>2014-09-30</latestUhslcFast>             <latestVliz>2015-03-16</latestVliz>         </station>         <station id=\"55\">             <name>Portland</name>             <latitude>-38.343000</latitude>             <longitude>141.613000</longitude>             <latestBodc>2010</latestBodc>             <latestPsmsl>2013-12</latestPsmsl>             <latestPsmslRlr>2013-12</latestPsmslRlr>             <latestSonel>2015-03-14</latestSonel>             <latestJasl>2012-12-31</latestJasl>             <latestUhslcFast>2014-09-30</latestUhslcFast>             <latestVliz>2015-03-16</latestVliz>         </station>         <station id=\"56\">             <name>Spring Bay</name>             <latitude>-42.550000</latitude>             <longitude>147.933000</longitude>             <latestBodc>2010</latestBodc>             <latestPsmsl>2013-12</latestPsmsl>             <latestPsmslRlr>2013-12</latestPsmslRlr>             <latestSonel>2015-03-14</latestSonel>             <latestJasl>2012-12-31</latestJasl>             <latestUhslcFast>2014-09-30</latestUhslcFast>             <latestVliz>2015-03-16</latestVliz>         </station>         <station id=\"57\">             <name>Sydney, Fort Denison</name>             <latitude>-33.850000</latitude>             <longitude>151.233000</longitude>             <latestBodc>2004</latestBodc>             <latestPsmsl>2013-12</latestPsmsl>             <latestPsmslRlr>2013-12</latestPsmslRlr>             <latestSonel>2015-03-13</latestSonel>             <latestJasl>2012-12-31</latestJasl>             <latestUhslcFast>2014-09-30</latestUhslcFast>         </station>         <station id=\"58\">             <name>Brisbane (West Inner Bar)</name>             <latitude>-27.367000</latitude>             <longitude>153.167000</longitude>             <latestBodc>2004</latestBodc>             <latestPsmsl>2012-12</latestPsmsl>             <latestPsmslRlr>2012-12</latestPsmslRlr>             <latestSonel>2015-03-14</latestSonel>             <latestJasl>2012-12-31</latestJasl>             <latestUhslcFast>2014-02-28</latestUhslcFast>         </station>         <station id=\"59\">             <name>Bundaberg, Burnett Heads</name>             <latitude>-24.767000</latitude>             <longitude>152.380000</longitude>             <latestBodc>2004</latestBodc>             <latestPsmsl>2012-12</latestPsmsl>             <latestPsmslRlr>2012-12</latestPsmslRlr>             <latestSonel>2015-03-14</latestSonel>             <latestJasl>2012-12-31</latestJasl>             <latestUhslcFast>2014-02-28</latestUhslcFast>         </station>         <station id=\"60\">             <name>Townsville</name>             <latitude>-19.250000</latitude>             <longitude>146.833000</longitude>             <latestBodc>2004</latestBodc>             <latestPsmsl>2012-12</latestPsmsl>             <latestPsmslRlr>2012-12</latestPsmslRlr>             <latestSonel>2015-03-14</latestSonel>             <latestJasl>2012-12-31</latestJasl>             <latestUhslcFast>2014-02-28</latestUhslcFast>             <latestVliz>2015-03-16</latestVliz>         </station>         <station id=\"61\">             <name>Booby Island</name>             <latitude>-10.600000</latitude>             <longitude>141.917000</longitude>             <latestBodc>2004</latestBodc>             <latestPsmsl>2013-12</latestPsmsl>             <latestPsmslRlr>2013-12</latestPsmslRlr>             <latestJasl>2012-12-31</latestJasl>             <latestUhslcFast>2014-09-30</latestUhslcFast>         </station>         <station id=\"62\">             <name>Darwin</name>             <latitude>-12.467000</latitude>             <longitude>130.850000</longitude>             <latestBodc>2010</latestBodc>             <latestPsmsl>2013-12</latestPsmsl>             <latestPsmslRlr>2013-12</latestPsmslRlr>             <latestSonel>2014-11-13</latestSonel>             <latestJasl>2012-12-31</latestJasl>             <latestUhslcFast>2014-09-30</latestUhslcFast>             <latestVliz>2015-03-16</latestVliz>         </station>         <station id=\"63\">             <name>Alotau</name>             <latitude>-10.317000</latitude>             <longitude>150.450000</longitude>             <latestBodc>1995</latestBodc>             <latestPsmsl>1995-02</latestPsmsl>             <latestPsmslRlr>1995-02</latestPsmslRlr>             <latestJasl>1995-02-24</latestJasl>         </station>         <station id=\"65\">             <name>Rabaul</name>             <latitude>-4.200000</latitude>             <longitude>152.183000</longitude>             <latestBodc>1997</latestBodc>             <latestPsmsl>1997-12</latestPsmsl>             <latestPsmslRlr>1997-12</latestPsmslRlr>             <latestJasl>1997-12-31</latestJasl>         </station>         <station id=\"66\">             <name>Honiara</name>             <latitude>-9.433000</latitude>             <longitude>159.950000</longitude>             <latestBodc>2010</latestBodc>             <latestPsmsl>2013-12</latestPsmsl>             <latestPsmslRlr>2013-12</latestPsmslRlr>             <latestSonel>2015-03-14</latestSonel>             <latestJasl>2012-12-31</latestJasl>             <latestUhslcFast>2014-09-30</latestUhslcFast>             <latestVliz>2015-03-16</latestVliz>         </station>         <station id=\"68\">             <name>Ambon</name>             <latitude>-3.700000</latitude>             <longitude>128.200000</longitude>             <latestPsmsl>2008-08</latestPsmsl>             <latestJasl>2012-04-03</latestJasl>             <latestUhslcFast>2014-09-30</latestUhslcFast>             <latestVliz>2015-03-16</latestVliz>         </station>         <station id=\"69\">             <name>Manado (Bitung)</name>             <latitude>1.433000</latitude>             <longitude>125.200000</longitude>             <latestBodc>1990</latestBodc>             <latestPsmsl>2012-12</latestPsmsl>             <latestSonel>2015-03-14</latestSonel>             <latestJasl>2012-12-31</latestJasl>             <latestUhslcFast>2014-07-19</latestUhslcFast>             <latestVliz>2015-03-16</latestVliz>         </station>         <station id=\"70\">             <name>Jolo, Sulu</name>             <latitude>6.067000</latitude>             <longitude>121.000000</longitude>             <latestBodc>1990</latestBodc>             <latestPsmsl>1996-09</latestPsmsl>             <latestPsmslRlr>1996-09</latestPsmslRlr>             <latestJasl>1995-12-31</latestJasl>         </station>         <station id=\"71\">             <name>Davao, Davao Gulf</name>             <latitude>7.083000</latitude>             <longitude>125.633000</longitude>             <latestBodc>2008</latestBodc>             <latestPsmsl>2013-10</latestPsmsl>             <latestPsmslRlr>2013-10</latestPsmslRlr>             <latestJasl>2012-12-31</latestJasl>             <latestUhslcFast>2014-08-31</latestUhslcFast>             <latestVliz>2015-03-16</latestVliz>         </station>         <station id=\"72\">             <name>Legaspi, Albay</name>             <latitude>13.150000</latitude>             <longitude>123.750000</longitude>             <latestBodc>2007</latestBodc>             <latestPsmsl>2013-09</latestPsmsl>             <latestPsmslRlr>2013-09</latestPsmslRlr>             <latestJasl>2012-09-30</latestJasl>             <latestUhslcFast>2014-09-30</latestUhslcFast>             <latestVliz>2015-03-16</latestVliz>         </station>         <station id=\"73\">             <name>Manila, South Harbor</name>             <latitude>14.583000</latitude>             <longitude>120.967000</longitude>             <latestBodc>2008</latestBodc>             <latestPsmsl>2013-12</latestPsmsl>             <latestPsmslRlr>2013-12</latestPsmslRlr>             <latestSonel>2015-03-14</latestSonel>             <latestJasl>2012-12-31</latestJasl>             <latestUhslcFast>2014-08-31</latestUhslcFast>             <latestVliz>2015-03-16</latestVliz>         </station>         <station id=\"74\">             <name>Nome</name>             <latitude>64.500000</latitude>             <longitude>-165.417000</longitude>             <latestBodc>2011</latestBodc>             <latestPsmsl>2013-12</latestPsmsl>             <latestPsmslRlr>2013-12</latestPsmslRlr>             <latestSonel>2015-03-14</latestSonel>             <latestJasl>2012-12-31</latestJasl>             <latestUhslcFast>2014-09-30</latestUhslcFast>             <latestVliz>2015-03-16</latestVliz>         </station>         <station id=\"75\">             <name>Quinhon</name>             <latitude>13.767000</latitude>             <longitude>109.217000</longitude>             <latestBodc>2009</latestBodc>             <latestPsmsl>2006-12</latestPsmsl>             <latestPsmslRlr>2006-12</latestPsmslRlr>             <latestJasl>2012-04-03</latestJasl>             <latestUhslcFast>2014-08-31</latestUhslcFast>             <latestVliz>2015-03-16</latestVliz>         </station>         <station id=\"76\">             <name>Port Elizabeth</name>             <latitude>-33.570000</latitude>             <longitude>25.370000</longitude>             <latestBodc>2007</latestBodc>             <latestPsmsl>2013-12</latestPsmsl>             <latestPsmslRlr>2013-12</latestPsmslRlr>             <latestSonel>2015-03-14</latestSonel>             <latestJasl>2011-09-01</latestJasl>             <latestUhslcFast>2014-09-30</latestUhslcFast>             <latestVliz>2015-02-09</latestVliz>         </station>         <station id=\"77\">             <name>Quarry Bay</name>             <latitude>22.283000</latitude>             <longitude>114.217000</longitude>             <latestBodc>1993</latestBodc>             <latestPsmsl>2013-12</latestPsmsl>             <latestPsmslRlr>2013-12</latestPsmslRlr>             <latestSonel>2015-03-09</latestSonel>             <latestJasl>2012-12-31</latestJasl>             <latestUhslcFast>2014-09-30</latestUhslcFast>             <latestVliz>2015-03-16</latestVliz>         </station>         <station id=\"78\">             <name>Zhapo</name>             <latitude>21.583000</latitude>             <longitude>111.833000</longitude>             <latestBodc>1990</latestBodc>             <latestPsmsl>2013-12</latestPsmsl>             <latestPsmslRlr>2013-12</latestPsmslRlr>             <latestJasl>1997-12-31</latestJasl>             <latestVliz>2015-03-16</latestVliz>         </station>         <station id=\"79\">             <name>Laohutan (Dalian)</name>             <latitude>38.867000</latitude>             <longitude>121.683000</longitude>             <latestBodc>1990</latestBodc>             <latestPsmsl>2013-12</latestPsmsl>             <latestPsmslRlr>2013-12</latestPsmslRlr>         </station>         <station id=\"80\">             <name>Hadera</name>             <latitude>32.467000</latitude>             <longitude>34.883000</longitude>             <latestBodc>2008</latestBodc>             <latestPsmsl>2012-03</latestPsmsl>             <latestPsmslRlr>2012-03</latestPsmslRlr>             <latestSonel>2015-03-14</latestSonel>             <latestUhslcFast>2013-06-30</latestUhslcFast>             <latestVliz>2015-03-16</latestVliz>         </station>         <station id=\"81\">             <name>Naha</name>             <latitude>26.217000</latitude>             <longitude>127.667000</longitude>             <latestBodc>2009</latestBodc>             <latestPsmsl>2013-12</latestPsmsl>             <latestPsmslRlr>2013-12</latestPsmslRlr>             <latestSonel>2015-03-13</latestSonel>             <latestJasl>2012-12-31</latestJasl>             <latestUhslcFast>2014-09-30</latestUhslcFast>             <latestVliz>2015-03-16</latestVliz>         </station>         <station id=\"82\">             <name>Aburatsu</name>             <latitude>31.350000</latitude>             <longitude>131.250000</longitude>             <latestBodc>2009</latestBodc>             <latestPsmsl>2013-12</latestPsmsl>             <latestPsmslRlr>2013-12</latestPsmslRlr>             <latestSonel>2015-03-13</latestSonel>             <latestJasl>2012-12-31</latestJasl>             <latestUhslcFast>2014-09-30</latestUhslcFast>             <latestVliz>2015-03-16</latestVliz>         </station>         <station id=\"83\">             <name>Nagasaki</name>             <latitude>32.440000</latitude>             <longitude>129.520000</longitude>             <latestBodc>2009</latestBodc>             <latestPsmsl>2013-12</latestPsmsl>             <latestPsmslRlr>2013-12</latestPsmslRlr>             <latestSonel>2015-03-13</latestSonel>             <latestJasl>2012-12-31</latestJasl>             <latestUhslcFast>2014-09-30</latestUhslcFast>             <latestVliz>2015-03-16</latestVliz>         </station>         <station id=\"84\">             <name>Pusan</name>             <latitude>35.100000</latitude>             <longitude>129.033000</longitude>             <latestBodc>2004</latestBodc>             <latestPsmsl>2013-12</latestPsmsl>             <latestPsmslRlr>2013-12</latestPsmslRlr>             <latestVliz>2015-03-16</latestVliz>         </station>         <station id=\"85\">             <name>Kushimoto</name>             <latitude>33.490000</latitude>             <longitude>135.460000</longitude>             <latestBodc>2009</latestBodc>             <latestPsmsl>2013-12</latestPsmsl>             <latestPsmslRlr>2013-12</latestPsmslRlr>             <latestSonel>2015-03-13</latestSonel>             <latestJasl>2012-12-31</latestJasl>             <latestUhslcFast>2014-09-30</latestUhslcFast>             <latestVliz>2015-03-16</latestVliz>         </station>         <station id=\"86\">             <name>Mera</name>             <latitude>34.550000</latitude>             <longitude>139.490000</longitude>             <latestBodc>2009</latestBodc>             <latestPsmsl>2013-12</latestPsmsl>             <latestPsmslRlr>2013-12</latestPsmslRlr>             <latestSonel>2015-03-13</latestSonel>             <latestJasl>2012-12-31</latestJasl>             <latestUhslcFast>2014-09-30</latestUhslcFast>             <latestVliz>2015-03-16</latestVliz>         </station>         <station id=\"87\">             <name>Ofunato</name>             <latitude>39.017000</latitude>             <longitude>141.750000</longitude>             <latestBodc>2009</latestBodc>             <latestPsmsl>2013-12</latestPsmsl>             <latestPsmslRlr>2013-12</latestPsmslRlr>             <latestSonel>2015-03-13</latestSonel>             <latestJasl>2012-12-31</latestJasl>             <latestUhslcFast>2014-09-30</latestUhslcFast>             <latestVliz>2015-03-16</latestVliz>         </station>         <station id=\"88\">             <name>Hakodate</name>             <latitude>41.470000</latitude>             <longitude>140.430000</longitude>             <latestBodc>2009</latestBodc>             <latestPsmsl>2013-12</latestPsmsl>             <latestPsmslRlr>2013-12</latestPsmslRlr>             <latestSonel>2015-03-13</latestSonel>             <latestJasl>2012-12-31</latestJasl>             <latestUhslcFast>2014-09-30</latestUhslcFast>             <latestVliz>2015-03-16</latestVliz>         </station>         <station id=\"89\">             <name>Kushiro</name>             <latitude>42.580000</latitude>             <longitude>144.220000</longitude>             <latestBodc>2009</latestBodc>             <latestPsmsl>2013-12</latestPsmsl>             <latestPsmslRlr>2013-12</latestPsmslRlr>             <latestSonel>2015-03-13</latestSonel>             <latestJasl>2012-12-31</latestJasl>             <latestUhslcFast>2014-09-30</latestUhslcFast>             <latestVliz>2015-03-16</latestVliz>         </station>         <station id=\"90\">             <name>Yuzhno Kurilsk</name>             <latitude>44.017000</latitude>             <longitude>145.867000</longitude>             <latestBodc>1994</latestBodc>             <latestPsmsl>1994-10</latestPsmsl>             <latestPsmslRlr>1994-10</latestPsmslRlr>             <latestVliz>2013-08-24</latestVliz>         </station>         <station id=\"92\">             <name>Nagaevo By</name>             <latitude>59.733000</latitude>             <longitude>150.700000</longitude>             <latestPsmsl>2013-12</latestPsmsl>             <latestPsmslRlr>2013-12</latestPsmslRlr>             <latestSonel>2015-03-14</latestSonel>         </station>         <station id=\"93\">             <name>Petropavlovsk-Kamchatsky</name>             <latitude>52.983000</latitude>             <longitude>158.650000</longitude>             <latestPsmsl>2013-12</latestPsmsl>             <latestPsmslRlr>2013-12</latestPsmslRlr>             <latestSonel>2015-03-14</latestSonel>             <latestVliz>2015-03-16</latestVliz>         </station>         <station id=\"94\">             <name>Kanmen</name>             <latitude>28.083000</latitude>             <longitude>121.283000</longitude>             <latestBodc>1990</latestBodc>             <latestPsmsl>2013-12</latestPsmsl>             <latestPsmslRlr>2013-12</latestPsmslRlr>             <latestJasl>1997-12-31</latestJasl>         </station>         <station id=\"95\">             <name>Syowa</name>             <latitude>-69.000000</latitude>             <longitude>39.600000</longitude>             <latestBodc>2002</latestBodc>             <latestPsmsl>2012-12</latestPsmsl>             <latestSonel>2015-03-14</latestSonel>             <latestJasl>2010-12-31</latestJasl>             <latestUhslcFast>2010-12-31</latestUhslcFast>             <latestVliz>2015-03-16</latestVliz>         </station>         <station id=\"96\">             <name>Dzaoudzi (Mayotte)</name>             <latitude>-12.783000</latitude>             <longitude>45.250000</longitude>             <latestBodc>1990</latestBodc>             <latestPsmsl>2013-12</latestPsmsl>             <latestPsmslRlr>2013-12</latestPsmslRlr>             <latestSonel>2015-03-14</latestSonel>             <latestJasl>2012-12-31</latestJasl>             <latestUhslcFast>2014-08-30</latestUhslcFast>             <latestVliz>2015-03-16</latestVliz>         </station>         <station id=\"97\">             <name>Kaliningrad</name>             <latitude>54.950000</latitude>             <longitude>20.217000</longitude>             <latestPsmsl>1986-12</latestPsmsl>             <latestPsmslRlr>1986-12</latestPsmslRlr>         </station>         <station id=\"98\">             <name>Port Tuapse, Black Sea</name>             <latitude>44.100000</latitude>             <longitude>39.067000</longitude>             <latestPsmsl>2013-05</latestPsmsl>             <latestPsmslRlr>2013-05</latestPsmslRlr>         </station>         <station id=\"99\">             <name>Russkaia Gavan</name>             <latitude>76.233000</latitude>             <longitude>62.583000</longitude>             <latestPsmsl>1993-07</latestPsmsl>             <latestPsmslRlr>1993-07</latestPsmslRlr>         </station>         <station id=\"100\">             <name>Sand Point, AK</name>             <latitude>55.333000</latitude>             <longitude>-160.500000</longitude>             <latestPsmsl>2013-12</latestPsmsl>             <latestPsmslRlr>2013-12</latestPsmslRlr>             <latestSonel>2015-03-14</latestSonel>             <latestJasl>2012-12-31</latestJasl>             <latestUhslcFast>2014-09-30</latestUhslcFast>             <latestVliz>2015-03-11</latestVliz>         </station>         <station id=\"101\">             <name>Wellington</name>             <latitude>-41.170000</latitude>             <longitude>174.470000</longitude>             <latestBodc>2010</latestBodc>             <latestPsmsl>2013-12</latestPsmsl>             <latestPsmslRlr>2013-12</latestPsmslRlr>             <latestSonel>2015-03-14</latestSonel>             <latestJasl>2013-12-31</latestJasl>             <latestUhslcFast>2014-09-30</latestUhslcFast>             <latestVliz>2015-03-16</latestVliz>         </station>         <station id=\"102\">             <name>Unalaska, Aleutian Is.</name>             <latitude>53.883000</latitude>             <longitude>-166.533000</longitude>             <latestPsmsl>2013-12</latestPsmsl>             <latestPsmslRlr>2013-12</latestPsmslRlr>             <latestSonel>2015-03-14</latestSonel>             <latestJasl>2012-12-31</latestJasl>             <latestUhslcFast>2014-09-30</latestUhslcFast>             <latestVliz>2015-03-16</latestVliz>         </station>         <station id=\"103\">             <name>Chichijima</name>             <latitude>27.083000</latitude>             <longitude>142.183000</longitude>             <latestBodc>2009</latestBodc>             <latestPsmsl>2013-12</latestPsmsl>             <latestPsmslRlr>2013-12</latestPsmslRlr>             <latestSonel>2015-03-13</latestSonel>             <latestJasl>2012-12-31</latestJasl>             <latestUhslcFast>2014-09-30</latestUhslcFast>             <latestVliz>2015-03-16</latestVliz>         </station>         <station id=\"104\">             <name>Minami-Tori-Shima</name>             <latitude>24.180000</latitude>             <longitude>153.580000</longitude>             <latestBodc>2009</latestBodc>             <latestPsmsl>2013-12</latestPsmsl>             <latestSonel>2015-03-14</latestSonel>             <latestJasl>2012-12-31</latestJasl>             <latestUhslcFast>2014-09-30</latestUhslcFast>             <latestVliz>2015-03-16</latestVliz>         </station>         <station id=\"105\">             <name>Wake Island, Marshall Is.</name>             <latitude>19.283000</latitude>             <longitude>166.617000</longitude>             <latestBodc>2008</latestBodc>             <latestPsmsl>2013-12</latestPsmsl>             <latestPsmslRlr>2013-12</latestPsmslRlr>             <latestJasl>2012-12-31</latestJasl>             <latestUhslcFast>2014-09-30</latestUhslcFast>             <latestVliz>2015-03-16</latestVliz>         </station>         <station id=\"106\">             <name>Midway Island, Hawaiian Is.</name>             <latitude>28.217000</latitude>             <longitude>-177.367000</longitude>             <latestBodc>2011</latestBodc>             <latestPsmsl>2013-12</latestPsmsl>             <latestPsmslRlr>2013-12</latestPsmslRlr>             <latestJasl>2012-12-31</latestJasl>             <latestUhslcFast>2014-09-30</latestUhslcFast>             <latestVliz>2015-03-16</latestVliz>         </station>         <station id=\"107\">             <name>French Frigate Shoals,</name>             <latitude>23.867000</latitude>             <longitude>-166.283000</longitude>             <latestBodc>2004</latestBodc>             <latestPsmsl>2012-03</latestPsmsl>             <latestPsmslRlr>2012-03</latestPsmslRlr>             <latestJasl>2012-04-03</latestJasl>             <latestUhslcFast>2014-09-30</latestUhslcFast>             <latestVliz>2015-03-16</latestVliz>         </station>         <station id=\"108\">             <name>Honolulu, Hawaiian Is.</name>             <latitude>21.300000</latitude>             <longitude>-157.867000</longitude>             <latestBodc>2008</latestBodc>             <latestPsmsl>2013-12</latestPsmsl>             <latestPsmslRlr>2013-12</latestPsmslRlr>             <latestSonel>2015-03-14</latestSonel>             <latestJasl>2012-12-31</latestJasl>             <latestUhslcFast>2014-10-31</latestUhslcFast>             <latestVliz>2015-03-16</latestVliz>         </station>         <station id=\"109\">             <name>Johnston Is., Hawaiian Is.</name>             <latitude>16.733000</latitude>             <longitude>-169.533000</longitude>             <latestBodc>2003</latestBodc>             <latestPsmsl>2003-01</latestPsmsl>             <latestPsmslRlr>2003-01</latestPsmslRlr>             <latestJasl>2012-12-31</latestJasl>             <latestUhslcFast>2014-09-30</latestUhslcFast>             <latestVliz>2015-03-16</latestVliz>         </station>         <station id=\"111\">             <name>Kwajalein</name>             <latitude>8.733000</latitude>             <longitude>167.733000</longitude>             <latestBodc>2011</latestBodc>             <latestPsmsl>2013-12</latestPsmsl>             <latestPsmslRlr>2013-12</latestPsmslRlr>             <latestSonel>2002-07-23</latestSonel>             <latestJasl>2012-03-31</latestJasl>             <latestUhslcFast>2014-10-31</latestUhslcFast>             <latestVliz>2015-03-16</latestVliz>         </station>         <station id=\"112\">             <name>Majuro</name>             <latitude>7.100000</latitude>             <longitude>171.367000</longitude>             <latestBodc>2010</latestBodc>             <latestPsmsl>2013-12</latestPsmsl>             <latestPsmslRlr>2013-12</latestPsmslRlr>             <latestSonel>2015-03-14</latestSonel>             <latestJasl>2012-12-31</latestJasl>             <latestUhslcFast>2014-09-30</latestUhslcFast>             <latestVliz>2015-03-16</latestVliz>         </station>         <station id=\"113\">             <name>Tarawa, Gilbert Is. (Betio)</name>             <latitude>1.363000</latitude>             <longitude>172.930000</longitude>             <latestBodc>2010</latestBodc>             <latestPsmsl>2013-12</latestPsmsl>             <latestPsmslRlr>2013-12</latestPsmslRlr>             <latestSonel>2015-03-14</latestSonel>             <latestJasl>2012-12-31</latestJasl>             <latestUhslcFast>2014-09-30</latestUhslcFast>         </station>         <station id=\"114\">             <name>Nauru, Gilbert Is.</name>             <latitude>-0.533000</latitude>             <longitude>166.900000</longitude>             <latestBodc>2010</latestBodc>             <latestPsmsl>2013-12</latestPsmsl>             <latestPsmslRlr>2013-12</latestPsmslRlr>             <latestSonel>2015-03-14</latestSonel>             <latestJasl>2012-12-31</latestJasl>             <latestUhslcFast>2014-09-30</latestUhslcFast>         </station>         <station id=\"115\">             <name>Pohnpei, Caroline Is.</name>             <latitude>6.590000</latitude>             <longitude>158.150000</longitude>             <latestBodc>2010</latestBodc>             <latestPsmsl>2013-12</latestPsmsl>             <latestPsmslRlr>2013-12</latestPsmslRlr>             <latestSonel>2015-03-14</latestSonel>             <latestJasl>2012-12-31</latestJasl>             <latestUhslcFast>2014-09-29</latestUhslcFast>             <latestVliz>2014-11-27</latestVliz>         </station>         <station id=\"116\">             <name>Chuuk, Caroline Is.</name>             <latitude>7.450000</latitude>             <longitude>151.850000</longitude>             <latestBodc>1995</latestBodc>             <latestPsmsl>1995-06</latestPsmsl>             <latestPsmslRlr>1995-06</latestPsmslRlr>             <latestSonel>2002-08-14</latestSonel>             <latestJasl>1991-12-31</latestJasl>         </station>         <station id=\"117\">             <name>Kapingamarangi, Caroline Is.</name>             <latitude>1.100000</latitude>             <longitude>154.783000</longitude>             <latestBodc>2008</latestBodc>             <latestPsmsl>2009-07</latestPsmsl>             <latestPsmslRlr>2009-07</latestPsmslRlr>             <latestJasl>2009-08-12</latestJasl>             <latestUhslcFast>2014-10-31</latestUhslcFast>             <latestVliz>2015-03-16</latestVliz>         </station>         <station id=\"118\">             <name>Saipan</name>             <latitude>15.233000</latitude>             <longitude>145.733000</longitude>             <latestBodc>2009</latestBodc>             <latestPsmsl>2012-03</latestPsmsl>             <latestPsmslRlr>2012-03</latestPsmslRlr>             <latestSonel>2015-03-14</latestSonel>             <latestJasl>2012-04-03</latestJasl>             <latestUhslcFast>2014-09-30</latestUhslcFast>             <latestVliz>2015-03-16</latestVliz>         </station>         <station id=\"119\">             <name>Yap, Caroline Is.</name>             <latitude>9.517000</latitude>             <longitude>138.133000</longitude>             <latestBodc>2005</latestBodc>             <latestPsmsl>2012-03</latestPsmsl>             <latestPsmslRlr>2012-03</latestPsmslRlr>             <latestJasl>2012-04-03</latestJasl>             <latestUhslcFast>2014-10-31</latestUhslcFast>             <latestVliz>2015-03-16</latestVliz>         </station>         <station id=\"120\">             <name>Malakal</name>             <latitude>7.333000</latitude>             <longitude>134.467000</longitude>             <latestBodc>2009</latestBodc>             <latestPsmsl>2012-03</latestPsmsl>             <latestPsmslRlr>2012-03</latestPsmslRlr>             <latestSonel>2014-11-30</latestSonel>             <latestJasl>2012-04-03</latestJasl>             <latestUhslcFast>2014-10-31</latestUhslcFast>             <latestVliz>2015-03-16</latestVliz>         </station>         <station id=\"121\">             <name>Funafuti, Ellice Is.</name>             <latitude>-8.383000</latitude>             <longitude>179.217000</longitude>             <latestBodc>2010</latestBodc>             <latestPsmsl>2013-12</latestPsmsl>             <latestPsmslRlr>2013-12</latestPsmslRlr>             <latestSonel>2015-03-14</latestSonel>             <latestJasl>2012-12-31</latestJasl>             <latestUhslcFast>2014-09-30</latestUhslcFast>             <latestVliz>2015-03-16</latestVliz>         </station>         <station id=\"122\">             <name>Suva</name>             <latitude>-18.133000</latitude>             <longitude>178.433000</longitude>             <latestBodc>2010</latestBodc>             <latestPsmsl>2013-12</latestPsmsl>             <latestPsmslRlr>2013-12</latestPsmslRlr>             <latestSonel>2002-07-26</latestSonel>             <latestJasl>2012-12-31</latestJasl>             <latestUhslcFast>2014-09-30</latestUhslcFast>             <latestVliz>2015-03-16</latestVliz>         </station>         <station id=\"123\">             <name>Noumea, New Caledonia</name>             <latitude>-22.300000</latitude>             <longitude>166.433000</longitude>             <latestBodc>1998</latestBodc>             <latestPsmsl>2013-12</latestPsmsl>             <latestPsmslRlr>2013-12</latestPsmslRlr>             <latestSonel>2015-03-14</latestSonel>             <latestJasl>2012-12-31</latestJasl>             <latestUhslcFast>2014-09-30</latestUhslcFast>         </station>         <station id=\"124\">             <name>Norfolk Island</name>             <latitude>-29.067000</latitude>             <longitude>167.950000</longitude>             <latestBodc>1986</latestBodc>             <latestPsmsl>2012-06</latestPsmsl>             <latestPsmslRlr>2012-06</latestPsmslRlr>             <latestSonel>2015-03-14</latestSonel>             <latestJasl>1999-12-31</latestJasl>         </station>         <station id=\"125\">             <name>Nuku\\ufffd\\ufffd\\ufffdalofa</name>             <latitude>-21.167000</latitude>             <longitude>-175.250000</longitude>             <latestBodc>2010</latestBodc>             <latestPsmsl>2013-12</latestPsmsl>             <latestPsmslRlr>2013-12</latestPsmslRlr>             <latestSonel>2015-03-14</latestSonel>             <latestJasl>2012-12-31</latestJasl>             <latestUhslcFast>2014-09-30</latestUhslcFast>             <latestVliz>2015-03-16</latestVliz>         </station>         <station id=\"127\">             <name>Auckland-Waitemata Hbr.</name>             <latitude>-36.510000</latitude>             <longitude>174.460000</longitude>             <latestBodc>1988</latestBodc>             <latestPsmsl>2000-05</latestPsmsl>             <latestPsmslRlr>2000-05</latestPsmslRlr>             <latestSonel>2015-03-14</latestSonel>             <latestJasl>1988-12-31</latestJasl>             <latestVliz>2015-03-16</latestVliz>         </station>         <station id=\"128\">             <name>Chatham Island</name>             <latitude>-43.950000</latitude>             <longitude>-176.550000</longitude>             <latestPsmsl>2010-09</latestPsmsl>             <latestPsmslRlr>2010-09</latestPsmslRlr>             <latestSonel>2015-03-14</latestSonel>             <latestJasl>2010-09-30</latestJasl>             <latestUhslcFast>2014-09-30</latestUhslcFast>             <latestVliz>2015-03-16</latestVliz>         </station>         <station id=\"129\">             <name>Bluff</name>             <latitude>-46.600000</latitude>             <longitude>168.350000</longitude>             <latestBodc>2010</latestBodc>             <latestPsmsl>2013-12</latestPsmsl>             <latestPsmslRlr>2013-12</latestPsmslRlr>             <latestSonel>2015-03-14</latestSonel>             <latestJasl>2013-12-30</latestJasl>             <latestUhslcFast>2014-09-30</latestUhslcFast>         </station>         <station id=\"130\">             <name>Macquarie Island</name>             <latitude>-54.500000</latitude>             <longitude>158.933000</longitude>             <latestBodc>1999</latestBodc>             <latestPsmsl>2008-12</latestPsmsl>             <latestSonel>2015-03-14</latestSonel>             <latestJasl>2007-01-31</latestJasl>             <latestUhslcFast>2008-07-09</latestUhslcFast>         </station>         <station id=\"131\">             <name>Dumont D'urville</name>             <latitude>-66.662000</latitude>             <longitude>140.010000</longitude>             <latestBodc>2010</latestBodc>             <latestSonel>2015-03-05</latestSonel>             <latestJasl>2010-08-19</latestJasl>             <latestUhslcFast>2010-08-19</latestUhslcFast>             <latestVliz>2012-12-13</latestVliz>         </station>         <station id=\"134\">             <name>Scott Base</name>             <latitude>-77.510000</latitude>             <longitude>166.460000</longitude>             <latestBodc>2010</latestBodc>             <latestPsmsl>2010-12</latestPsmsl>             <latestPsmslRlr>2010-12</latestPsmslRlr>             <latestSonel>2015-03-14</latestSonel>             <latestJasl>2006-10-01</latestJasl>         </station>         <station id=\"137\">             <name>Pascua (Easter) Island</name>             <latitude>-27.150000</latitude>             <longitude>-109.450000</longitude>             <latestBodc>2006</latestBodc>             <latestPsmsl>2013-12</latestPsmsl>             <latestPsmslRlr>2013-12</latestPsmslRlr>             <latestSonel>2015-03-14</latestSonel>             <latestJasl>2012-12-31</latestJasl>             <latestUhslcFast>2014-09-30</latestUhslcFast>             <latestVliz>2015-03-16</latestVliz>         </station>         <station id=\"138\">             <name>Rikitea, Gambier</name>             <latitude>-23.133000</latitude>             <longitude>-134.950000</longitude>             <latestBodc>1998</latestBodc>             <latestPsmsl>2012-03</latestPsmsl>             <latestPsmslRlr>2012-03</latestPsmslRlr>             <latestSonel>2015-03-14</latestSonel>             <latestJasl>2012-04-03</latestJasl>             <latestUhslcFast>2014-10-31</latestUhslcFast>             <latestVliz>2015-03-16</latestVliz>         </station>         <station id=\"139\">             <name>Rarotonga</name>             <latitude>-21.200000</latitude>             <longitude>-159.767000</longitude>             <latestBodc>2010</latestBodc>             <latestPsmsl>2013-12</latestPsmsl>             <latestPsmslRlr>2013-12</latestPsmslRlr>             <latestSonel>2015-03-14</latestSonel>             <latestJasl>2012-12-31</latestJasl>             <latestUhslcFast>2014-09-30</latestUhslcFast>             <latestVliz>2015-03-16</latestVliz>         </station>         <station id=\"140\">             <name>Papeete, Tahiti</name>             <latitude>-17.533000</latitude>             <longitude>-149.567000</longitude>             <latestBodc>2009</latestBodc>             <latestPsmsl>2012-01</latestPsmsl>             <latestPsmslRlr>2012-01</latestPsmslRlr>             <latestSonel>2015-03-14</latestSonel>             <latestJasl>2012-02-26</latestJasl>             <latestUhslcFast>2014-10-31</latestUhslcFast>             <latestVliz>2015-03-16</latestVliz>         </station>         <station id=\"141\">             <name>Moulmein (Mawlamyine)</name>             <latitude>16.483000</latitude>             <longitude>97.617000</longitude>             <latestPsmsl>1964-09</latestPsmsl>             <latestPsmslRlr>1964-09</latestPsmslRlr>             <latestJasl>2012-09-05</latestJasl>             <latestUhslcFast>2014-08-31</latestUhslcFast>             <latestVliz>2015-03-16</latestVliz>         </station>         <station id=\"142\">             <name>Nuku Hiva, Marquesas Is.</name>             <latitude>-8.933000</latitude>             <longitude>-140.083000</longitude>             <latestBodc>2010</latestBodc>             <latestPsmsl>2012-12</latestPsmsl>             <latestPsmslRlr>2012-12</latestPsmslRlr>             <latestJasl>2012-12-31</latestJasl>             <latestUhslcFast>2014-09-30</latestUhslcFast>             <latestVliz>2015-03-16</latestVliz>         </station>         <station id=\"143\">             <name>Penrhyn</name>             <latitude>-8.590000</latitude>             <longitude>-158.067000</longitude>             <latestBodc>2010</latestBodc>             <latestPsmsl>2012-03</latestPsmsl>             <latestPsmslRlr>2012-03</latestPsmslRlr>             <latestJasl>2012-04-03</latestJasl>             <latestUhslcFast>2014-10-31</latestUhslcFast>             <latestVliz>2015-03-16</latestVliz>         </station>         <station id=\"144\">             <name>Pago Pago, American Samoa</name>             <latitude>-14.283000</latitude>             <longitude>-170.683000</longitude>             <latestBodc>2008</latestBodc>             <latestPsmsl>2013-12</latestPsmsl>             <latestPsmslRlr>2013-12</latestPsmslRlr>             <latestSonel>2015-03-13</latestSonel>             <latestJasl>2012-12-31</latestJasl>             <latestUhslcFast>2014-10-31</latestUhslcFast>             <latestVliz>2015-03-16</latestVliz>         </station>         <station id=\"145\">             <name>Kanton Island, Phoenix Is.</name>             <latitude>-2.490000</latitude>             <longitude>-171.430000</longitude>             <latestBodc>2001</latestBodc>             <latestPsmsl>2012-03</latestPsmsl>             <latestPsmslRlr>2012-03</latestPsmslRlr>             <latestJasl>2012-04-03</latestJasl>             <latestUhslcFast>2012-04-15</latestUhslcFast>             <latestVliz>2014-08-15</latestVliz>         </station>         <station id=\"146\">             <name>Christmas Island, Line Is.</name>             <latitude>1.983000</latitude>             <longitude>-157.483000</longitude>             <latestBodc>2003</latestBodc>             <latestPsmsl>2012-03</latestPsmsl>             <latestPsmslRlr>2012-03</latestPsmslRlr>             <latestJasl>2012-04-03</latestJasl>             <latestUhslcFast>2014-10-31</latestUhslcFast>             <latestVliz>2015-03-16</latestVliz>         </station>         <station id=\"148\">             <name>Lord Howe Island</name>             <latitude>-31.517000</latitude>             <longitude>159.067000</longitude>             <latestBodc>1993</latestBodc>             <latestPsmsl>2012-06</latestPsmsl>             <latestPsmslRlr>2012-06</latestPsmslRlr>             <latestSonel>2015-03-14</latestSonel>             <latestJasl>2012-06-30</latestJasl>             <latestUhslcFast>2012-06-30</latestUhslcFast>         </station>         <station id=\"149\">             <name>Apra Hbr, Guam, Marianas</name>             <latitude>13.433000</latitude>             <longitude>144.650000</longitude>             <latestBodc>2008</latestBodc>             <latestPsmsl>2013-12</latestPsmsl>             <latestPsmslRlr>2013-12</latestPsmslRlr>             <latestSonel>2015-03-14</latestSonel>             <latestJasl>2012-12-31</latestJasl>             <latestUhslcFast>2014-10-31</latestUhslcFast>             <latestVliz>2015-03-16</latestVliz>         </station>         <station id=\"150\">             <name>Seward, AK</name>             <latitude>60.117000</latitude>             <longitude>-149.433000</longitude>             <latestBodc>2011</latestBodc>             <latestPsmsl>2013-12</latestPsmsl>             <latestPsmslRlr>2013-12</latestPsmslRlr>             <latestJasl>2012-12-31</latestJasl>             <latestUhslcFast>2014-08-31</latestUhslcFast>             <latestVliz>2015-03-16</latestVliz>         </station>         <station id=\"151\">             <name>Prudhoe Bay, AK</name>             <latitude>70.400000</latitude>             <longitude>-148.527000</longitude>             <latestBodc>2011</latestBodc>             <latestPsmsl>2013-11</latestPsmsl>             <latestPsmslRlr>2013-11</latestPsmslRlr>             <latestSonel>2015-03-14</latestSonel>             <latestJasl>2012-12-31</latestJasl>             <latestUhslcFast>2014-08-31</latestUhslcFast>             <latestVliz>2015-03-16</latestVliz>         </station>         <station id=\"154\">             <name>Sitka, AK</name>             <latitude>57.050000</latitude>             <longitude>-135.333000</longitude>             <latestBodc>2011</latestBodc>             <latestPsmsl>2013-12</latestPsmsl>             <latestPsmslRlr>2013-12</latestPsmslRlr>             <latestSonel>2015-03-14</latestSonel>             <latestJasl>2012-12-31</latestJasl>             <latestUhslcFast>2014-08-31</latestUhslcFast>             <latestVliz>2015-03-16</latestVliz>         </station>         <station id=\"155\">             <name>Prince Rupert</name>             <latitude>54.317000</latitude>             <longitude>-130.333000</longitude>             <latestBodc>2010</latestBodc>             <latestPsmsl>2013-12</latestPsmsl>             <latestPsmslRlr>2013-12</latestPsmslRlr>             <latestJasl>2012-12-31</latestJasl>             <latestUhslcFast>2014-09-30</latestUhslcFast>             <latestVliz>2015-02-06</latestVliz>         </station>         <station id=\"156\">             <name>Tofino</name>             <latitude>49.150000</latitude>             <longitude>-125.917000</longitude>             <latestBodc>2010</latestBodc>             <latestPsmsl>2013-12</latestPsmsl>             <latestPsmslRlr>2013-12</latestPsmslRlr>             <latestSonel>2015-03-14</latestSonel>             <latestJasl>2012-12-31</latestJasl>             <latestUhslcFast>2014-09-30</latestUhslcFast>             <latestVliz>2015-03-07</latestVliz>         </station>         <station id=\"157\">             <name>South Beach, OR</name>             <latitude>44.380000</latitude>             <longitude>-124.030000</longitude>             <latestBodc>2011</latestBodc>             <latestPsmsl>2013-12</latestPsmsl>             <latestPsmslRlr>2013-12</latestPsmslRlr>             <latestSonel>2015-03-14</latestSonel>             <latestJasl>2012-12-31</latestJasl>             <latestUhslcFast>2014-08-31</latestUhslcFast>             <latestVliz>2015-03-16</latestVliz>         </station>         <station id=\"158\">             <name>San Francisco, CA</name>             <latitude>37.800000</latitude>             <longitude>-122.467000</longitude>             <latestBodc>2011</latestBodc>             <latestPsmsl>2013-12</latestPsmsl>             <latestPsmslRlr>2013-12</latestPsmslRlr>             <latestSonel>2015-03-14</latestSonel>             <latestJasl>2012-12-31</latestJasl>             <latestUhslcFast>2014-08-31</latestUhslcFast>             <latestVliz>2015-03-16</latestVliz>         </station>         <station id=\"159\">             <name>La Jolla (Scripps Pier), CA</name>             <latitude>32.867000</latitude>             <longitude>-117.267000</longitude>             <latestBodc>2011</latestBodc>             <latestPsmsl>2013-12</latestPsmsl>             <latestPsmslRlr>2013-12</latestPsmslRlr>             <latestSonel>2015-03-14</latestSonel>             <latestJasl>2012-12-31</latestJasl>             <latestUhslcFast>2014-08-31</latestUhslcFast>             <latestVliz>2015-03-16</latestVliz>         </station>         <station id=\"160\">             <name>Isla Guadalupe</name>             <latitude>28.883000</latitude>             <longitude>-118.300000</longitude>             <latestPsmsl>1985-10</latestPsmsl>             <latestPsmslRlr>1985-10</latestPsmslRlr>             <latestSonel>2005-04-01</latestSonel>             <latestJasl>1985-12-31</latestJasl>         </station>         <station id=\"161\">             <name>Cabo San Lucas</name>             <latitude>22.883000</latitude>             <longitude>-109.900000</longitude>             <latestBodc>1998</latestBodc>             <latestPsmsl>2003-08</latestPsmsl>             <latestPsmslRlr>2003-08</latestPsmslRlr>             <latestJasl>2003-08-31</latestJasl>             <latestUhslcFast>2014-09-14</latestUhslcFast>             <latestVliz>2014-09-15</latestVliz>         </station>         <station id=\"162\">             <name>Socorro Is.</name>             <latitude>18.733000</latitude>             <longitude>-111.017000</longitude>             <latestBodc>1975</latestBodc>             <latestPsmsl>1997-08</latestPsmsl>             <latestJasl>1959-07-04</latestJasl>             <latestUhslcFast>1997-09-22</latestUhslcFast>         </station>         <station id=\"163\">             <name>Manzanillo, Col.</name>             <latitude>19.050000</latitude>             <longitude>-104.333000</longitude>             <latestBodc>1998</latestBodc>             <latestPsmsl>2003-09</latestPsmsl>             <latestPsmslRlr>2003-09</latestPsmslRlr>             <latestSonel>2014-02-12</latestSonel>             <latestJasl>2012-04-03</latestJasl>             <latestUhslcFast>2013-08-29</latestUhslcFast>             <latestVliz>2013-04-26</latestVliz>         </station>         <station id=\"164\">             <name>Puerto Angel</name>             <latitude>15.650000</latitude>             <longitude>-96.500000</longitude>             <latestPsmsl>1986-10</latestPsmsl>             <latestPsmslRlr>1986-10</latestPsmslRlr>             <latestJasl>1984-11-01</latestJasl>         </station>         <station id=\"165\">             <name>Clipperton Is.</name>             <latitude>10.283000</latitude>             <longitude>-109.217000</longitude>             <latestPsmsl>1988-09</latestPsmsl>         </station>         <station id=\"167\">             <name>Quepos</name>             <latitude>9.400000</latitude>             <longitude>-84.167000</longitude>             <latestBodc>2001</latestBodc>             <latestPsmsl>2012-12</latestPsmsl>             <latestPsmslRlr>1970-12</latestPsmslRlr>             <latestJasl>2012-12-31</latestJasl>             <latestUhslcFast>2014-07-31</latestUhslcFast>             <latestVliz>2014-12-05</latestVliz>         </station>         <station id=\"168\">             <name>Balboa</name>             <latitude>8.967000</latitude>             <longitude>-79.600000</longitude>             <latestBodc>2010</latestBodc>             <latestPsmsl>2013-12</latestPsmsl>             <latestPsmslRlr>2013-12</latestPsmslRlr>             <latestJasl>2012-12-31</latestJasl>             <latestUhslcFast>2013-01-31</latestUhslcFast>         </station>         <station id=\"169\">             <name>Baltra, Galapagos Islands</name>             <latitude>-0.433000</latitude>             <longitude>-90.283000</longitude>             <latestBodc>2010</latestBodc>             <latestPsmsl>2012-03</latestPsmsl>             <latestPsmslRlr>2012-03</latestPsmslRlr>             <latestSonel>2015-03-14</latestSonel>             <latestJasl>2012-04-03</latestJasl>             <latestUhslcFast>2014-09-30</latestUhslcFast>             <latestVliz>2015-03-16</latestVliz>         </station>         <station id=\"170\">             <name>Buenaventura</name>             <latitude>3.900000</latitude>             <longitude>-77.100000</longitude>             <latestBodc>2011</latestBodc>             <latestPsmsl>2011-03</latestPsmsl>             <latestPsmslRlr>1969-12</latestPsmslRlr>             <latestSonel>2015-03-03</latestSonel>             <latestJasl>2013-10-25</latestJasl>             <latestVliz>2015-03-16</latestVliz>         </station>         <station id=\"171\">             <name>Tumaco</name>             <latitude>1.833000</latitude>             <longitude>-78.733000</longitude>             <latestBodc>2011</latestBodc>             <latestPsmsl>2011-05</latestPsmsl>             <latestPsmslRlr>1969-12</latestPsmslRlr>             <latestJasl>2013-12-31</latestJasl>             <latestVliz>2013-10-11</latestVliz>         </station>         <station id=\"172\">             <name>La Libertad</name>             <latitude>-2.200000</latitude>             <longitude>-80.917000</longitude>             <latestBodc>2010</latestBodc>             <latestPsmsl>2012-12</latestPsmsl>             <latestPsmslRlr>2003-10</latestPsmslRlr>             <latestJasl>2012-12-31</latestJasl>             <latestUhslcFast>2014-09-30</latestUhslcFast>             <latestVliz>2015-03-16</latestVliz>         </station>         <station id=\"173\">             <name>Callao (La Punta)</name>             <latitude>-12.050000</latitude>             <longitude>-77.150000</longitude>             <latestBodc>2010</latestBodc>             <latestPsmsl>2012-12</latestPsmsl>             <latestSonel>2014-12-18</latestSonel>             <latestJasl>2012-12-31</latestJasl>             <latestUhslcFast>2014-09-30</latestUhslcFast>             <latestVliz>2015-03-16</latestVliz>         </station>         <station id=\"174\">             <name>Antofagasta</name>             <latitude>-23.390000</latitude>             <longitude>-70.240000</longitude>             <latestBodc>2006</latestBodc>             <latestPsmsl>2013-12</latestPsmsl>             <latestPsmslRlr>2013-12</latestPsmslRlr>             <latestSonel>2014-01-14</latestSonel>             <latestJasl>2012-12-31</latestJasl>             <latestUhslcFast>2014-09-30</latestUhslcFast>             <latestVliz>2015-03-16</latestVliz>         </station>         <station id=\"175\">             <name>Valparaiso</name>             <latitude>-33.033000</latitude>             <longitude>-71.617000</longitude>             <latestBodc>2006</latestBodc>             <latestPsmsl>2013-12</latestPsmsl>             <latestPsmslRlr>2013-12</latestPsmslRlr>             <latestSonel>2015-03-12</latestSonel>             <latestJasl>2012-12-31</latestJasl>             <latestUhslcFast>2014-09-30</latestUhslcFast>             <latestVliz>2015-03-16</latestVliz>         </station>         <station id=\"176\">             <name>Juan Fernandez Island</name>             <latitude>-33.370000</latitude>             <longitude>-78.500000</longitude>             <latestBodc>2006</latestBodc>             <latestPsmsl>2013-12</latestPsmsl>             <latestPsmslRlr>2013-12</latestPsmslRlr>             <latestJasl>2012-12-31</latestJasl>             <latestUhslcFast>2014-09-30</latestUhslcFast>             <latestVliz>2015-03-16</latestVliz>         </station>         <station id=\"177\">             <name>San Felix</name>             <latitude>-26.170000</latitude>             <longitude>-80.070000</longitude>             <latestBodc>2006</latestBodc>             <latestPsmsl>2013-12</latestPsmsl>             <latestPsmslRlr>2013-12</latestPsmslRlr>             <latestJasl>2012-12-31</latestJasl>             <latestUhslcFast>2014-09-30</latestUhslcFast>             <latestVliz>2015-03-16</latestVliz>         </station>         <station id=\"178\">             <name>Puerto Montt</name>             <latitude>-41.290000</latitude>             <longitude>-72.580000</longitude>             <latestBodc>2006</latestBodc>             <latestPsmsl>2013-12</latestPsmsl>             <latestJasl>2012-12-31</latestJasl>             <latestUhslcFast>2014-08-31</latestUhslcFast>             <latestVliz>2015-03-16</latestVliz>         </station>         <station id=\"181\">             <name>Ushuaia</name>             <latitude>-54.817000</latitude>             <longitude>-68.300000</longitude>             <latestBodc>2006</latestBodc>             <latestPsmsl>2006-10</latestPsmsl>             <latestPsmslRlr>2006-02</latestPsmslRlr>             <latestSonel>2015-03-14</latestSonel>             <latestJasl>2010-10-05</latestJasl>             <latestUhslcFast>2010-09-30</latestUhslcFast>             <latestVliz>2015-03-16</latestVliz>         </station>         <station id=\"182\">             <name>Acajutla</name>             <latitude>13.583000</latitude>             <longitude>-89.833000</longitude>             <latestBodc>2011</latestBodc>             <latestPsmsl>2012-03</latestPsmsl>             <latestPsmslRlr>1991-12</latestPsmslRlr>             <latestJasl>2012-04-03</latestJasl>             <latestUhslcFast>2014-09-30</latestUhslcFast>             <latestVliz>2015-03-16</latestVliz>         </station>         <station id=\"185\">             <name>Bahia Esperanza</name>             <latitude>-63.300000</latitude>             <longitude>-56.917000</longitude>             <latestBodc>1998</latestBodc>             <latestPsmsl>1998-05</latestPsmsl>             <latestPsmslRlr>1993-12</latestPsmslRlr>             <latestJasl>1998-08-31</latestJasl>             <latestUhslcFast>2005-09-11</latestUhslcFast>         </station>         <station id=\"187\">             <name>King Edward Point, South Georgia</name>             <latitude>-54.250000</latitude>             <longitude>-36.750000</longitude>             <latestBodc>2009</latestBodc>             <latestPsmsl>2014-05</latestPsmsl>             <latestSonel>2015-03-14</latestSonel>             <latestVliz>2015-03-16</latestVliz>         </station>         <station id=\"188\">             <name>Vernadsky (Faraday), Argentine Is.</name>             <latitude>-65.250000</latitude>             <longitude>-64.267000</longitude>             <latestBodc>2012</latestBodc>             <latestPsmsl>2013-12</latestPsmsl>             <latestPsmslRlr>2013-12</latestPsmslRlr>             <latestSonel>2015-03-14</latestSonel>             <latestJasl>2009-11-27</latestJasl>             <latestUhslcFast>2014-08-30</latestUhslcFast>             <latestVliz>2015-03-16</latestVliz>         </station>         <station id=\"189\">             <name>Capitan Prat Base (Antarctica)</name>             <latitude>-62.290000</latitude>             <longitude>-59.380000</longitude>             <latestPsmsl>2002-12</latestPsmsl>             <latestPsmslRlr>2002-12</latestPsmslRlr>             <latestJasl>2012-12-31</latestJasl>             <latestVliz>2015-03-16</latestVliz>         </station>         <station id=\"190\">             <name>Puerto Deseado</name>             <latitude>-47.750000</latitude>             <longitude>-65.917000</longitude>             <latestBodc>1990</latestBodc>             <latestPsmsl>2002-05</latestPsmsl>             <latestPsmslRlr>2002-05</latestPsmslRlr>             <latestSonel>2009-08-31</latestSonel>             <latestJasl>2012-04-03</latestJasl>             <latestUhslcFast>2014-08-31</latestUhslcFast>             <latestVliz>2015-03-16</latestVliz>         </station>         <station id=\"191\">             <name>Puerto Madryn</name>             <latitude>-42.767000</latitude>             <longitude>-65.033000</longitude>             <latestPsmsl>2000-09</latestPsmsl>             <latestPsmslRlr>2000-09</latestPsmslRlr>             <latestSonel>2015-03-11</latestSonel>             <latestJasl>2012-04-03</latestJasl>             <latestUhslcFast>2014-08-31</latestUhslcFast>             <latestVliz>2015-03-16</latestVliz>         </station>         <station id=\"192\">             <name>Mar Del Plata</name>             <latitude>-38.050000</latitude>             <longitude>-57.550000</longitude>             <latestPsmsl>2012-12</latestPsmsl>             <latestPsmslRlr>2012-12</latestPsmslRlr>             <latestSonel>2015-03-14</latestSonel>             <latestJasl>2012-04-03</latestJasl>             <latestUhslcFast>2014-08-31</latestUhslcFast>             <latestVliz>2015-02-25</latestVliz>         </station>         <station id=\"193\">             <name>Porto Do Rio Grande</name>             <latitude>-32.100000</latitude>             <longitude>-52.103000</longitude>             <latestPsmsl>2003-12</latestPsmsl>             <latestJasl>2003-12-31</latestJasl>         </station>         <station id=\"194\">             <name>Cananeia</name>             <latitude>-25.017000</latitude>             <longitude>-47.933000</longitude>             <latestBodc>2006</latestBodc>             <latestPsmsl>2006-12</latestPsmsl>             <latestPsmslRlr>2006-12</latestPsmslRlr>             <latestSonel>2015-03-13</latestSonel>             <latestJasl>2006-12-31</latestJasl>             <latestUhslcFast>2007-04-09</latestUhslcFast>         </station>         <station id=\"195\">             <name>Rio De Janeiro - Ilha Fiscal</name>             <latitude>-22.900000</latitude>             <longitude>-43.167000</longitude>             <latestBodc>2009</latestBodc>             <latestPsmsl>2013-12</latestPsmsl>             <latestPsmslRlr>2013-12</latestPsmslRlr>             <latestSonel>2015-03-10</latestSonel>             <latestJasl>2012-12-31</latestJasl>             <latestUhslcFast>2013-04-30</latestUhslcFast>         </station>         <station id=\"198\">             <name>Fernando De Noronha</name>             <latitude>-3.833000</latitude>             <longitude>-32.400000</longitude>             <latestBodc>1985</latestBodc>             <latestPsmsl>1993-07</latestPsmsl>             <latestJasl>1986-12-31</latestJasl>         </station>         <station id=\"199\">             <name>St Peter &amp; St Paul Rocks</name>             <latitude>0.917000</latitude>             <longitude>-29.350000</longitude>             <latestBodc>1985</latestBodc>             <latestPsmsl>1985-10</latestPsmsl>             <latestJasl>1985-11-21</latestJasl>         </station>         <station id=\"200\">             <name>Ponta Da Madeira</name>             <latitude>-2.567000</latitude>             <longitude>-44.367000</longitude>             <latestBodc>2009</latestBodc>             <latestPsmsl>2008-12</latestPsmsl>             <latestJasl>2003-12-31</latestJasl>         </station>         <station id=\"202\">             <name>Cayenne</name>             <latitude>4.850000</latitude>             <longitude>-52.283000</longitude>             <latestPsmsl>2013-12</latestPsmsl>             <latestPsmslRlr>2013-02</latestPsmslRlr>             <latestSonel>2015-03-14</latestSonel>             <latestJasl>2007-12-31</latestJasl>             <latestUhslcFast>2011-10-31</latestUhslcFast>         </station>         <station id=\"203\">             <name>Port of Spain</name>             <latitude>10.650000</latitude>             <longitude>-61.517000</longitude>             <latestBodc>1990</latestBodc>             <latestPsmsl>1992-11</latestPsmsl>             <latestPsmslRlr>1992-11</latestPsmslRlr>             <latestSonel>2015-02-17</latestSonel>             <latestJasl>1992-12-07</latestJasl>             <latestVliz>2015-03-16</latestVliz>         </station>         <station id=\"205\">             <name>Marseille</name>             <latitude>43.300000</latitude>             <longitude>5.350000</longitude>             <latestBodc>2004</latestBodc>             <latestPsmsl>2013-12</latestPsmsl>             <latestPsmslRlr>2013-12</latestPsmslRlr>             <latestSonel>2015-03-14</latestSonel>             <latestJasl>2012-12-25</latestJasl>             <latestUhslcFast>2014-08-30</latestUhslcFast>             <latestVliz>2015-03-16</latestVliz>         </station>         <station id=\"206\">             <name>San Juan</name>             <latitude>18.467000</latitude>             <longitude>-66.117000</longitude>             <latestBodc>2011</latestBodc>             <latestPsmsl>2013-12</latestPsmsl>             <latestPsmslRlr>2013-12</latestPsmslRlr>             <latestSonel>2015-03-14</latestSonel>             <latestJasl>2012-12-31</latestJasl>             <latestUhslcFast>2014-08-31</latestUhslcFast>             <latestVliz>2015-03-16</latestVliz>         </station>         <station id=\"207\">             <name>Cartagena</name>             <latitude>10.400000</latitude>             <longitude>-75.550000</longitude>             <latestBodc>2011</latestBodc>             <latestPsmsl>2011-06</latestPsmsl>             <latestPsmslRlr>1992-12</latestPsmslRlr>             <latestSonel>2014-12-16</latestSonel>             <latestJasl>2013-12-31</latestJasl>             <latestVliz>2015-03-16</latestVliz>         </station>         <station id=\"208\">             <name>Coco Solo</name>             <latitude>9.367000</latitude>             <longitude>-79.883000</longitude>             <latestBodc>1993</latestBodc>             <latestPsmsl>2012-12</latestPsmsl>             <latestPsmslRlr>1996-05</latestPsmslRlr>             <latestSonel>2015-03-13</latestSonel>         </station>         <station id=\"209\">             <name>Port-Au-Prince/Les Cayes</name>             <latitude>18.567000</latitude>             <longitude>-72.350000</longitude>             <latestPsmsl>1961-12</latestPsmsl>             <latestPsmslRlr>1961-12</latestPsmslRlr>             <latestSonel>2014-11-05</latestSonel>             <latestUhslcFast>2014-08-31</latestUhslcFast>             <latestVliz>2015-03-16</latestVliz>         </station>         <station id=\"210\">             <name>Port Royal, Kingston</name>             <latitude>17.933000</latitude>             <longitude>-76.850000</longitude>             <latestPsmsl>1969-12</latestPsmsl>             <latestPsmslRlr>1969-12</latestPsmslRlr>             <latestSonel>2015-03-14</latestSonel>             <latestJasl>1971-12-31</latestJasl>             <latestVliz>2015-03-16</latestVliz>         </station>         <station id=\"211\">             <name>Settlement Point</name>             <latitude>26.717000</latitude>             <longitude>-78.983000</longitude>             <latestBodc>2003</latestBodc>             <latestPsmsl>2012-03</latestPsmsl>             <latestPsmslRlr>2001-09</latestPsmslRlr>             <latestSonel>2015-03-14</latestSonel>             <latestJasl>2012-04-03</latestJasl>             <latestUhslcFast>2014-08-31</latestUhslcFast>             <latestVliz>2015-03-16</latestVliz>         </station>         <station id=\"212\">             <name>Veracruz, Ver.</name>             <latitude>19.200000</latitude>             <longitude>-96.133000</longitude>             <latestBodc>2008</latestBodc>             <latestPsmsl>2012-12</latestPsmsl>             <latestSonel>2013-01-11</latestSonel>             <latestJasl>2012-12-31</latestJasl>             <latestVliz>2015-03-16</latestVliz>         </station>         <station id=\"213\">             <name>Progreso, Yuc.</name>             <latitude>21.300000</latitude>             <longitude>-89.650000</longitude>             <latestPsmsl>2004-11</latestPsmsl>             <latestPsmslRlr>1990-12</latestPsmslRlr>             <latestSonel>2015-03-13</latestSonel>             <latestJasl>2013-06-05</latestJasl>             <latestVliz>2015-03-16</latestVliz>         </station>         <station id=\"214\">             <name>Cabo San Antonio</name>             <latitude>21.900000</latitude>             <longitude>-84.900000</longitude>             <latestPsmsl>2012-11</latestPsmsl>             <latestPsmslRlr>2012-11</latestPsmslRlr>         </station>         <station id=\"215\">             <name>Siboney</name>             <latitude>23.100000</latitude>             <longitude>-82.467000</longitude>             <latestBodc>1991</latestBodc>             <latestPsmsl>2005-10</latestPsmsl>             <latestJasl>1990-12-31</latestJasl>         </station>         <station id=\"216\">             <name>Key West, FL</name>             <latitude>24.550000</latitude>             <longitude>-81.800000</longitude>             <latestBodc>2011</latestBodc>             <latestPsmsl>2013-12</latestPsmsl>             <latestPsmslRlr>2013-12</latestPsmslRlr>             <latestSonel>2015-03-14</latestSonel>             <latestJasl>2012-12-31</latestJasl>             <latestUhslcFast>2014-08-31</latestUhslcFast>             <latestVliz>2015-03-16</latestVliz>         </station>         <station id=\"217\">             <name>Galveston (Pier 21), TX</name>             <latitude>29.317000</latitude>             <longitude>-94.800000</longitude>             <latestBodc>2011</latestBodc>             <latestPsmsl>2013-12</latestPsmsl>             <latestPsmslRlr>2013-12</latestPsmslRlr>             <latestSonel>2015-03-14</latestSonel>             <latestJasl>2012-12-31</latestJasl>             <latestUhslcFast>2014-08-31</latestUhslcFast>             <latestVliz>2015-03-16</latestVliz>         </station>         <station id=\"219\">             <name>Duck, NC</name>             <latitude>36.183000</latitude>             <longitude>-75.750000</longitude>             <latestBodc>2011</latestBodc>             <latestPsmsl>2013-12</latestPsmsl>             <latestPsmslRlr>2013-12</latestPsmslRlr>             <latestSonel>2015-03-14</latestSonel>             <latestJasl>2012-12-31</latestJasl>             <latestUhslcFast>2014-08-31</latestUhslcFast>             <latestVliz>2015-03-16</latestVliz>         </station>         <station id=\"220\">             <name>Atlantic City, NJ</name>             <latitude>39.350000</latitude>             <longitude>-74.417000</longitude>             <latestBodc>2011</latestBodc>             <latestPsmsl>2013-12</latestPsmsl>             <latestPsmslRlr>2013-12</latestPsmslRlr>             <latestSonel>2015-03-14</latestSonel>             <latestJasl>2012-12-31</latestJasl>             <latestUhslcFast>2014-08-31</latestUhslcFast>             <latestVliz>2015-03-16</latestVliz>         </station>         <station id=\"221\">             <name>Bermuda, St. Georges Is.</name>             <latitude>32.367000</latitude>             <longitude>-64.700000</longitude>             <latestBodc>2011</latestBodc>             <latestPsmsl>2013-12</latestPsmsl>             <latestPsmslRlr>2013-12</latestPsmslRlr>             <latestSonel>2015-03-14</latestSonel>             <latestJasl>2012-12-31</latestJasl>             <latestUhslcFast>2014-08-31</latestUhslcFast>             <latestVliz>2015-03-16</latestVliz>         </station>         <station id=\"222\">             <name>Halifax</name>             <latitude>44.667000</latitude>             <longitude>-63.583000</longitude>             <latestBodc>2010</latestBodc>             <latestPsmsl>2011-12</latestPsmsl>             <latestPsmslRlr>2011-12</latestPsmslRlr>             <latestSonel>2015-03-14</latestSonel>             <latestJasl>2011-12-31</latestJasl>             <latestUhslcFast>2014-08-22</latestUhslcFast>             <latestVliz>2015-01-13</latestVliz>         </station>         <station id=\"223\">             <name>St. John\\ufffd\\ufffd\\ufffds, Newfoundland</name>             <latitude>47.567000</latitude>             <longitude>-52.717000</longitude>             <latestBodc>2010</latestBodc>             <latestPsmsl>2011-12</latestPsmsl>             <latestPsmslRlr>2011-12</latestPsmslRlr>             <latestSonel>2015-03-14</latestSonel>             <latestJasl>2011-12-31</latestJasl>             <latestUhslcFast>2014-08-22</latestUhslcFast>             <latestVliz>2015-03-13</latestVliz>         </station>         <station id=\"224\">             <name>Nain</name>             <latitude>56.550000</latitude>             <longitude>-61.700000</longitude>             <latestPsmsl>2011-12</latestPsmsl>             <latestPsmslRlr>2011-12</latestPsmslRlr>             <latestSonel>2015-03-14</latestSonel>             <latestJasl>2011-12-31</latestJasl>             <latestUhslcFast>2014-08-27</latestUhslcFast>             <latestVliz>2015-02-17</latestVliz>         </station>         <station id=\"225\">             <name>Godthaab/Nuuk, Greenland</name>             <latitude>64.167000</latitude>             <longitude>-51.733000</longitude>             <latestBodc>2004</latestBodc>             <latestPsmsl>2002-04</latestPsmsl>             <latestVliz>2015-03-16</latestVliz>         </station>         <station id=\"228\">             <name>Ammassalik, Greenland</name>             <latitude>65.500000</latitude>             <longitude>-37.000000</longitude>             <latestBodc>1999</latestBodc>             <latestPsmsl>1999-12</latestPsmsl>             <latestSonel>2015-03-14</latestSonel>             <latestJasl>1998-12-31</latestJasl>         </station>         <station id=\"229\">             <name>Reykjavik</name>             <latitude>64.150000</latitude>             <longitude>-21.933000</longitude>             <latestBodc>2012</latestBodc>             <latestPsmsl>2013-12</latestPsmsl>             <latestPsmslRlr>2013-12</latestPsmslRlr>             <latestSonel>2015-03-14</latestSonel>             <latestJasl>1999-12-31</latestJasl>             <latestUhslcFast>2014-09-15</latestUhslcFast>             <latestVliz>2015-03-16</latestVliz>         </station>         <station id=\"231\">             <name>Barentsburg (Sptizbergen)</name>             <latitude>78.067000</latitude>             <longitude>14.250000</longitude>             <latestPsmsl>2013-12</latestPsmsl>             <latestPsmslRlr>2013-12</latestPsmslRlr>         </station>         <station id=\"233\">             <name>Goteborg \\ufffd\\ufffd\\ufffd Torshamnen</name>             <latitude>57.410000</latitude>             <longitude>11.480000</longitude>             <latestBodc>2005</latestBodc>             <latestPsmsl>2013-12</latestPsmsl>             <latestPsmslRlr>2013-12</latestPsmslRlr>             <latestJasl>2012-12-31</latestJasl>             <latestUhslcFast>2014-08-31</latestUhslcFast>             <latestVliz>2015-03-16</latestVliz>         </station>         <station id=\"234\">             <name>Rorvik</name>             <latitude>64.867000</latitude>             <longitude>11.250000</longitude>             <latestBodc>2006</latestBodc>             <latestPsmsl>2013-12</latestPsmsl>             <latestPsmslRlr>2013-12</latestPsmslRlr>             <latestJasl>2003-12-31</latestJasl>             <latestUhslcFast>2014-09-30</latestUhslcFast>             <latestVliz>2015-03-16</latestVliz>         </station>         <station id=\"236\">             <name>Lerwick</name>             <latitude>60.150000</latitude>             <longitude>-1.133000</longitude>             <latestBodc>2012</latestBodc>             <latestPsmsl>2013-12</latestPsmsl>             <latestPsmslRlr>2013-12</latestPsmslRlr>             <latestSonel>2015-02-16</latestSonel>             <latestJasl>2010-11-15</latestJasl>             <latestUhslcFast>2013-11-30</latestUhslcFast>             <latestVliz>2015-03-16</latestVliz>         </station>         <station id=\"237\">             <name>Torshavn, Faroe Islands</name>             <latitude>62.017000</latitude>             <longitude>-6.767000</longitude>             <latestBodc>2002</latestBodc>             <latestPsmsl>2006-12</latestPsmsl>             <latestPsmslRlr>2006-12</latestPsmslRlr>             <latestSonel>2015-03-14</latestSonel>         </station>         <station id=\"238\">             <name>Stornoway</name>             <latitude>58.200000</latitude>             <longitude>-6.383000</longitude>             <latestBodc>2012</latestBodc>             <latestPsmsl>2013-12</latestPsmsl>             <latestPsmslRlr>2013-12</latestPsmslRlr>             <latestSonel>2015-03-10</latestSonel>             <latestJasl>2010-12-31</latestJasl>             <latestUhslcFast>2013-11-30</latestUhslcFast>             <latestVliz>2015-03-16</latestVliz>         </station>         <station id=\"239\">             <name>Malin Head</name>             <latitude>55.367000</latitude>             <longitude>-7.333000</longitude>             <latestBodc>2009</latestBodc>             <latestPsmsl>2002-06</latestPsmsl>             <latestPsmslRlr>2002-06</latestPsmslRlr>             <latestJasl>2001-12-31</latestJasl>             <latestUhslcFast>2014-08-31</latestUhslcFast>             <latestVliz>2015-03-05</latestVliz>         </station>         <station id=\"241\">             <name>Newlyn</name>             <latitude>50.100000</latitude>             <longitude>-5.550000</longitude>             <latestBodc>2012</latestBodc>             <latestPsmsl>2013-12</latestPsmsl>             <latestPsmslRlr>2013-12</latestPsmslRlr>             <latestSonel>2015-03-10</latestSonel>             <latestJasl>2010-12-31</latestJasl>             <latestUhslcFast>2013-11-30</latestUhslcFast>             <latestVliz>2015-03-16</latestVliz>         </station>         <station id=\"242\">             <name>Brest</name>             <latitude>48.383000</latitude>             <longitude>-4.500000</longitude>             <latestBodc>2004</latestBodc>             <latestPsmsl>2013-12</latestPsmsl>             <latestPsmslRlr>2013-12</latestPsmslRlr>             <latestSonel>2015-03-14</latestSonel>             <latestJasl>2012-12-31</latestJasl>             <latestUhslcFast>2014-08-30</latestUhslcFast>             <latestVliz>2015-03-16</latestVliz>         </station>         <station id=\"243\">             <name>La Coruna</name>             <latitude>43.213000</latitude>             <longitude>-8.232000</longitude>             <latestBodc>1997</latestBodc>             <latestPsmsl>2013-12</latestPsmsl>             <latestPsmslRlr>2013-12</latestPsmslRlr>             <latestSonel>2015-03-14</latestSonel>             <latestJasl>2012-12-31</latestJasl>             <latestUhslcFast>2014-08-31</latestUhslcFast>             <latestVliz>2015-03-16</latestVliz>         </station>         <station id=\"244\">             <name>Santa Cruz Del Flores (Azores)</name>             <latitude>39.273000</latitude>             <longitude>-31.075000</longitude>             <latestBodc>2009</latestBodc>             <latestPsmsl>2009-11</latestPsmsl>             <latestSonel>2015-03-14</latestSonel>             <latestJasl>2009-11-24</latestJasl>             <latestUhslcFast>2009-11-24</latestUhslcFast>         </station>         <station id=\"245\">             <name>Ponta Delgada (Azores)</name>             <latitude>37.442000</latitude>             <longitude>-25.403000</longitude>             <latestBodc>2009</latestBodc>             <latestPsmsl>2012-03</latestPsmsl>             <latestPsmslRlr>2012-03</latestPsmslRlr>             <latestSonel>2015-03-14</latestSonel>             <latestJasl>2012-04-03</latestJasl>             <latestUhslcFast>2014-07-31</latestUhslcFast>             <latestVliz>2015-03-16</latestVliz>         </station>         <station id=\"246\">             <name>Cascais</name>             <latitude>38.417000</latitude>             <longitude>-9.250000</longitude>             <latestBodc>2007</latestBodc>             <latestPsmsl>2005-12</latestPsmsl>             <latestPsmslRlr>1993-12</latestPsmslRlr>             <latestSonel>2015-03-14</latestSonel>             <latestJasl>2005-12-31</latestJasl>             <latestUhslcFast>2014-08-31</latestUhslcFast>             <latestVliz>2015-03-16</latestVliz>         </station>         <station id=\"247\">             <name>Xiamen</name>             <latitude>24.450000</latitude>             <longitude>118.067000</longitude>             <latestBodc>1984</latestBodc>             <latestPsmsl>2004-10</latestPsmsl>             <latestPsmslRlr>2004-10</latestPsmslRlr>             <latestJasl>1997-12-31</latestJasl>         </station>         <station id=\"248\">             <name>Gibraltar</name>             <latitude>36.148000</latitude>             <longitude>-5.365000</longitude>             <latestBodc>2010</latestBodc>             <latestPsmsl>2014-05</latestPsmsl>             <latestPsmslRlr>2014-05</latestPsmslRlr>             <latestSonel>2015-03-10</latestSonel>             <latestJasl>2000-04-30</latestJasl>             <latestUhslcFast>2014-08-31</latestUhslcFast>             <latestVliz>2015-03-16</latestVliz>         </station>         <station id=\"249\">             <name>Ceuta (Spanish N. Africa)</name>             <latitude>35.540000</latitude>             <longitude>-5.190000</longitude>             <latestBodc>1997</latestBodc>             <latestPsmsl>2013-12</latestPsmsl>             <latestPsmslRlr>2013-12</latestPsmslRlr>             <latestSonel>2015-03-14</latestSonel>             <latestJasl>2010-12-31</latestJasl>             <latestUhslcFast>2014-08-31</latestUhslcFast>             <latestVliz>2015-03-15</latestVliz>         </station>         <station id=\"250\">             <name>Funchal (Madeira)</name>             <latitude>32.386000</latitude>             <longitude>-16.547000</longitude>             <latestBodc>2009</latestBodc>             <latestPsmsl>2013-12</latestPsmsl>             <latestPsmslRlr>2013-12</latestPsmslRlr>             <latestSonel>2015-03-14</latestSonel>             <latestJasl>2013-12-31</latestJasl>             <latestUhslcFast>2012-12-31</latestUhslcFast>         </station>         <station id=\"251\">             <name>Las Palmas, Canary Is.</name>             <latitude>28.133000</latitude>             <longitude>-15.417000</longitude>             <latestBodc>2005</latestBodc>             <latestPsmsl>2013-12</latestPsmsl>             <latestPsmslRlr>2013-12</latestPsmslRlr>             <latestSonel>2013-08-17</latestSonel>             <latestJasl>2010-12-31</latestJasl>             <latestUhslcFast>2014-08-13</latestUhslcFast>             <latestVliz>2015-03-16</latestVliz>         </station>         <station id=\"253\">             <name>Dakar</name>             <latitude>14.660000</latitude>             <longitude>-17.440000</longitude>             <latestBodc>1995</latestBodc>             <latestPsmsl>2012-03</latestPsmsl>             <latestPsmslRlr>2012-03</latestPsmslRlr>             <latestSonel>2015-03-13</latestSonel>             <latestJasl>2012-04-03</latestJasl>             <latestUhslcFast>2014-08-31</latestUhslcFast>             <latestVliz>2015-03-16</latestVliz>         </station>         <station id=\"255\">             <name>Conakry</name>             <latitude>9.517000</latitude>             <longitude>-13.717000</longitude>             <latestBodc>1993</latestBodc>             <latestPsmsl>1994-04</latestPsmsl>         </station>         <station id=\"257\">             <name>Abidjan</name>             <latitude>5.250000</latitude>             <longitude>-4.000000</longitude>             <latestBodc>1988</latestBodc>             <latestPsmsl>1988-12</latestPsmsl>             <latestPsmslRlr>1976-03</latestPsmslRlr>             <latestJasl>1988-12-31</latestJasl>         </station>         <station id=\"259\">             <name>Lagos</name>             <latitude>6.421000</latitude>             <longitude>3.407000</longitude>             <latestBodc>2009</latestBodc>             <latestPsmsl>1996-08</latestPsmsl>             <latestJasl>1996-10-06</latestJasl>             <latestUhslcFast>2009-04-17</latestUhslcFast>             <latestVliz>2014-07-12</latestVliz>         </station>         <station id=\"260\">             <name>Sao Tome</name>             <latitude>0.348000</latitude>             <longitude>6.737000</longitude>             <latestBodc>1988</latestBodc>             <latestPsmsl>1988-11</latestPsmsl>             <latestSonel>2014-05-07</latestSonel>             <latestJasl>1988-1