{
    "content": "<cdidata>   <cdi type=\"city\">     <location name=\"San Carlos::Cojedes::Venezuela\">       <cdi>3.0916</cdi>       <nresp>1</nresp>       <dist>599</dist>       <lat>9.66</lat>       <lon>-68.60</lon>       <name>San Carlos</name>     </location>     <location name=\"Caracas::Distrito Capital::Venezuela\">       <cdi>3.4498</cdi>       <nresp>1</nresp>       <dist>800</dist>       <lat>10.54</lat>       <lon>-66.93</lon>       <name>Caracas</name>     </location>     <location name=\"Chacao::Miranda::Venezuela\">       <cdi>2.8973</cdi>       <nresp>4</nresp>       <dist>805</dist>       <lat>10.50</lat>       <lon>-66.85</lon>       <name>Chacao</name>     </location>     <location name=\"Ejido::M\\ufffd\\ufffd\\ufffd\\ufffdrida::Venezuela\">       <cdi>2.7751</cdi>       <nresp>3</nresp>       <dist>317</dist>       <lat>8.56</lat>       <lon>-71.23</lon>       <name>Ejido</name>     </location>     <location name=\"Trujillo::Trujillo::Venezuela\">       <cdi>2.2372</cdi>       <nresp>1</nresp>       <dist>431</dist>       <lat>9.38</lat>       <lon>-70.44</lon>       <name>Trujillo</name>     </location>     <location name=\"San Crist\\ufffd\\ufffd\\ufffd\\ufffdbal::T\\ufffd\\ufffd\\ufffd\\ufffdchira::Venezuela\">       <cdi>3.6425</cdi>       <nresp>4</nresp>       <dist>208</dist>       <lat>7.77</lat>       <lon>-72.25</lon>       <name>San Crist\\ufffd\\ufffd\\ufffd\\ufffdbal</name>     </location>     <location name=\"T\\ufffd\\ufffd\\ufffd\\ufffdriba::T\\ufffd\\ufffd\\ufffd\\ufffdchira::Venezuela\">       <cdi>3.7738</cdi>       <nresp>1</nresp>       <dist>211</dist>       <lat>7.82</lat>       <lon>-72.24</lon>       <name>T\\ufffd\\ufffd\\ufffd\\ufffdriba</name>     </location>     <location name=\"Maracaibo::Zulia::Venezuela\">       <cdi>2.9039</cdi>       <nresp>4</nresp>       <dist>487</dist>       <lat>10.73</lat>       <lon>-71.66</lon>       <name>Maracaibo</name>     </location>     <location name=\"Barbosa::Antioquia::Colombia\">       <cdi>3.0916</cdi>       <nresp>1</nresp>       <dist>306</dist>       <lat>6.44</lat>       <lon>-75.33</lon>       <name>Barbosa</name>     </location>     <location name=\"Envigado::Antioquia::Colombia\">       <cdi>3.6700</cdi>       <nresp>23</nresp>       <dist>333</dist>       <lat>6.16</lat>       <lon>-75.56</lon>       <name>Envigado</name>     </location>     <location name=\"Guarne::Antioquia::Colombia\">       <cdi>3.7738</cdi>       <nresp>1</nresp>       <dist>319</dist>       <lat>6.29</lat>       <lon>-75.44</lon>       <name>Guarne</name>     </location>     <location name=\"Heliconia::Antioquia::Colombia\">       <cdi>2</cdi>       <nresp>1</nresp>       <dist>348</dist>       <lat>6.21</lat>       <lon>-75.73</lon>       <name>Heliconia</name>     </location>     <location name=\"Itag\\ufffd\\ufffd\\ufffd\\ufffd\\ufffd\\ufffd\\ufffd\\ufffd::Antioquia::Colombia\">       <cdi>4.0885</cdi>       <nresp>15</nresp>       <dist>339</dist>       <lat>6.17</lat>       <lon>-75.62</lon>       <name>Itag\\ufffd\\ufffd\\ufffd\\ufffd\\ufffd\\ufffd\\ufffd\\ufffd</name>     </location>     <location name=\"La Ceja::Antioquia::Colombia\">       <cdi>5.4480</cdi>       <nresp>1</nresp>       <dist>325</dist>       <lat>6.04</lat>       <lon>-75.44</lon>       <name>La Ceja</name>     </location>     <location name=\"La Uni\\ufffd\\ufffd\\ufffd\\ufffdn::Antioquia::Colombia\">       <cdi>2</cdi>       <nresp>1</nresp>       <dist>320</dist>       <lat>5.99</lat>       <lon>-75.37</lon>       <name>La Uni\\ufffd\\ufffd\\ufffd\\ufffdn</name>     </location>     <location name=\"Medell\\ufffd\\ufffd\\ufffd\\ufffdn::Antioquia::Colombia\">       <cdi>3.8428</cdi>       <nresp>23</nresp>       <dist>329</dist>       <lat>6.29</lat>       <lon>-75.54</lon>       <name>Medell\\ufffd\\ufffd\\ufffd\\ufffdn</name>     </location>     <location name=\"R\\ufffd\\ufffd\\ufffd\\ufffdonegro::Antioquia::Colombia\">       <cdi>3.0916</cdi>       <nresp>2</nresp>       <dist>317</dist>       <lat>6.16</lat>       <lon>-75.39</lon>       <name>R\\ufffd\\ufffd\\ufffd\\ufffdonegro</name>     </location>     <location name=\"Sabaneta::Antioquia::Colombia\">       <cdi>2.9370</cdi>       <nresp>5</nresp>       <dist>337</dist>       <lat>6.15</lat>       <lon>-75.60</lon>       <name>Sabaneta</name>     </location>     <location name=\"Barranquilla::Atl\\ufffd\\ufffd\\ufffd\\ufffdntico::Colombia\">       <cdi>3.9738</cdi>       <nresp>3</nresp>       <dist>529</dist>       <lat>10.96</lat>       <lon>-74.80</lon>       <name>Barranquilla</name>     </location>     <location name=\"Puerto Colombia::Atl\\ufffd\\ufffd\\ufffd\\ufffdntico::Colombia\">       <cdi>2.6912</cdi>       <nresp>1</nresp>       <dist>538</dist>       <lat>10.99</lat>       <lon>-74.95</lon>       <name>Puerto Colombia</name>     </location>     <location name=\"Bogot\\ufffd\\ufffd\\ufffd\\ufffd::Bogot\\ufffd\\ufffd\\ufffd\\ufffd::Colombia\">       <cdi>3.8972</cdi>       <nresp>220</nresp>       <dist>310</dist>       <lat>4.63</lat>       <lon>-74.09</lon>       <name>Bogot\\ufffd\\ufffd\\ufffd\\ufffd</name>     </location>     <location name=\"Cartagena::Bol\\ufffd\\ufffd\\ufffd\\ufffdvar::Colombia\">       <cdi>3.7177</cdi>       <nresp>5</nresp>       <dist>513</dist>       <lat>10.40</lat>       <lon>-75.50</lon>       <name>Cartagena</name>     </location>     <location name=\"Leiva::Boyac\\ufffd\\ufffd\\ufffd\\ufffd::Colombia\">       <cdi>5.0476</cdi>       <nresp>1</nresp>       <dist>212</dist>       <lat>5.63</lat>       <lon>-73.57</lon>       <name>Leiva</name>     </location>     <location name=\"San Luis de Gaceno::Boyac\\ufffd\\ufffd\\ufffd\\ufffd::Colombia\">       <cdi>2</cdi>       <nresp>1</nresp>       <dist>267</dist>       <lat>4.82</lat>       <lon>-73.17</lon>       <name>San Luis de Gaceno</name>     </location>     <location name=\"Sogamoso::Boyac\\ufffd\\ufffd\\ufffd\\ufffd::Colombia\">       <cdi>4.0696</cdi>       <nresp>1</nresp>       <dist>195</dist>       <lat>5.72</lat>       <lon>-72.94</lon>       <name>Sogamoso</name>     </location>     <location name=\"Tunja::Boyac\\ufffd\\ufffd\\ufffd\\ufffd::Colombia\">       <cdi>4.0696</cdi>       <nresp>1</nresp>       <dist>211</dist>       <lat>5.55</lat>       <lon>-73.37</lon>       <name>Tunja</name>     </location>     <location name=\"Chinchin\\ufffd\\ufffd\\ufffd\\ufffd::Caldas::Colombia\">       <cdi>3.7738</cdi>       <nresp>1</nresp>       <dist>385</dist>       <lat>4.98</lat>       <lon>-75.60</lon>       <name>Chinchin\\ufffd\\ufffd\\ufffd\\ufffd</name>     </location>     <location name=\"Manizales::Caldas::Colombia\">       <cdi>3.7069</cdi>       <nresp>9</nresp>       <dist>374</dist>       <lat>5.06</lat>       <lon>-75.52</lon>       <name>Manizales</name>     </location>     <location name=\"Neira::Caldas::Colombia\">       <cdi>3.7738</cdi>       <nresp>1</nresp>       <dist>369</dist>       <lat>5.16</lat>       <lon>-75.53</lon>       <name>Neira</name>     </location>     <location name=\"Villamar\\ufffd\\ufffd\\ufffd\\ufffda::Caldas::Colombia\">       <cdi>3.4498</cdi>       <nresp>1</nresp>       <dist>375</dist>       <lat>5.04</lat>       <lon>-75.52</lon>       <name>Villamar\\ufffd\\ufffd\\ufffd\\ufffda</name>     </location>     <location name=\"Yopal::Casanare::Colombia\">       <cdi>3.0916</cdi>       <nresp>2</nresp>       <dist>230</dist>       <lat>5.35</lat>       <lon>-72.41</lon>       <name>Yopal</name>     </location>     <location name=\"Agua de Dios::Cundinamarca::Colombia\">       <cdi>3.4498</cdi>       <nresp>1</nresp>       <dist>360</dist>       <lat>4.38</lat>       <lon>-74.67</lon>       <name>Agua de Dios</name>     </location>     <location name=\"Cajic\\ufffd\\ufffd\\ufffd\\ufffd::Cundinamarca::Colombia\">       <cdi>3.2754</cdi>       <nresp>2</nresp>       <dist>283</dist>       <lat>4.92</lat>       <lon>-74.03</lon>       <name>Cajic\\ufffd\\ufffd\\ufffd\\ufffd</name>     </location>     <location name=\"Choach\\ufffd\\ufffd\\ufffd\\ufffd::Cundinamarca::Colombia\">       <cdi>3.8502</cdi>       <nresp>2</nresp>       <dist>312</dist>       <lat>4.53</lat>       <lon>-73.93</lon>       <name>Choach\\ufffd\\ufffd\\ufffd\\ufffd</name>     </location>     <location name=\"Ch\\ufffd\\ufffd\\ufffd\\ufffda::Cundinamarca::Colombia\">       <cdi>4.5117</cdi>       <nresp>3</nresp>       <dist>289</dist>       <lat>4.87</lat>       <lon>-74.07</lon>       <name>Ch\\ufffd\\ufffd\\ufffd\\ufffda</name>     </location>     <location name=\"Cota::Cundinamarca::Colombia\">       <cdi>4.5284</cdi>       <nresp>15</nresp>       <dist>294</dist>       <lat>4.82</lat>       <lon>-74.10</lon>       <name>Cota</name>     </location>     <location name=\"C\\ufffd\\ufffd\\ufffd\\ufffdqueza::Cundinamarca::Colombia\">       <cdi>4.0696</cdi>       <nresp>1</nresp>       <dist>322</dist>       <lat>4.42</lat>       <lon>-73.95</lon>       <name>C\\ufffd\\ufffd\\ufffd\\ufffdqueza</name>     </location>     <location name=\"Facatativ\\ufffd\\ufffd\\ufffd\\ufffd::Cundinamarca::Colombia\">       <cdi>4.3417</cdi>       <nresp>1</nresp>       <dist>308</dist>       <lat>4.82</lat>       <lon>-74.37</lon>       <name>Facatativ\\ufffd\\ufffd\\ufffd\\ufffd</name>     </location>     <location name=\"Funza::Cundinamarca::Colombia\">       <cdi>3.9249</cdi>       <nresp>2</nresp>       <dist>308</dist>       <lat>4.71</lat>       <lon>-74.21</lon>       <name>Funza</name>     </location>     <location name=\"La Calera::Cundinamarca::Colombia\">       <cdi>4.2061</cdi>       <nresp>22</nresp>       <dist>297</dist>       <lat>4.72</lat>       <lon>-73.97</lon>       <name>La Calera</name>     </location>     <location name=\"La Mesa::Cundinamarca::Colombia\">       <cdi>3.4498</cdi>       <nresp>1</nresp>       <dist>329</dist>       <lat>4.63</lat>       <lon>-74.47</lon>       <name>La Mesa</name>     </location>     <location name=\"Madrid::Cundinamarca::Colombia\">       <cdi>5.4480</cdi>       <nresp>1</nresp>       <dist>309</dist>       <lat>4.74</lat>       <lon>-74.27</lon>       <name>Madrid</name>     </location>     <location name=\"Medina::Cundinamarca::Colombia\">       <cdi>2</cdi>       <nresp>1</nresp>       <dist>298</dist>       <lat>4.51</lat>       <lon>-73.35</lon>       <name>Medina</name>     </location>     <location name=\"Pasca::Cundinamarca::Colombia\">       <cdi>4.7129</cdi>       <nresp>1</nresp>       <dist>347</dist>       <lat>4.31</lat>       <lon>-74.30</lon>       <name>Pasca</name>     </location>     <location name=\"Puerto Salgar::Cundinamarca::Colombia\">       <cdi>4.0696</cdi>       <nresp>1</nresp>       <dist>283</dist>       <lat>5.47</lat>       <lon>-74.66</lon>       <name>Puerto Salgar</name>     </location>     <location name=\"San Bernardo::Cundinamarca::Colombia\">       <cdi>2</cdi>       <nresp>1</nresp>       <dist>364</dist>       <lat>4.17</lat>       <lon>-74.42</lon>       <name>San Bernardo</name>     </location>     <location name=\"Sibat\\ufffd\\ufffd\\ufffd\\ufffd::Cundinamarca::Colombia\">       <cdi>3.4498</cdi>       <nresp>1</nresp>       <dist>329</dist>       <lat>4.49</lat>       <lon>-74.26</lon>       <name>Sibat\\ufffd\\ufffd\\ufffd\\ufffd</name>     </location>     <location name=\"Soacha::Cundinamarca::Colombia\">       <cdi>4.1947</cdi>       <nresp>5</nresp>       <dist>320</dist>       <lat>4.58</lat>       <lon>-74.22</lon>       <name>Soacha</name>     </location>     <location name=\"Tabio::Cundinamarca::Colombia\">       <cdi>4.2084</cdi>       <nresp>1</nresp>       <dist>286</dist>       <lat>4.92</lat>       <lon>-74.10</lon>       <name>Tabio</name>     </location>     <location name=\"Tocancip\\ufffd\\ufffd\\ufffd\\ufffd::Cundinamarca::Colombia\">       <cdi>2.6912</cdi>       <nresp>1</nresp>       <dist>274</dist>       <lat>4.97</lat>       <lon>-73.91</lon>       <name>Tocancip\\ufffd\\ufffd\\ufffd\\ufffd</name>     </location>     <location name=\"Miraflores::Guaviare::Colombia\">       <cdi>3.7738</cdi>       <nresp>1</nresp>       <dist>630</dist>       <lat>1.34</lat>       <lon>-71.95</lon>       <name>Miraflores</name>     </location>     <location name=\"Aracataca::Magdalena::Colombia\">       <cdi>3.4498</cdi>       <nresp>1</nresp>       <dist>471</dist>       <lat>10.60</lat>       <lon>-74.19</lon>       <name>Aracataca</name>     </location>     <location name=\"Fundaci\\ufffd\\ufffd\\ufffd\\ufffdn::Magdalena::Colombia\">       <cdi>2</cdi>       <nresp>1</nresp>       <dist>464</dist>       <lat>10.53</lat>       <lon>-74.19</lon>       <name>Fundaci\\ufffd\\ufffd\\ufffd\\ufffdn</name>     </location>     <location name=\"Santa Marta::Magdalena::Colombia\">       <cdi>3.4498</cdi>       <nresp>1</nresp>       <dist>538</dist>       <lat>11.26</lat>       <lon>-74.19</lon>       <name>Santa Marta</name>     </location>     <location name=\"Fuente de Oro::Meta::Colombia\">       <cdi>2</cdi>       <nresp>1</nresp>       <dist>404</dist>       <lat>3.46</lat>       <lon>-73.61</lon>       <name>Fuente de Oro</name>     </location>     <location name=\"Puerto Gait\\ufffd\\ufffd\\ufffd\\ufffdn::Meta::Colombia\">       <cdi>2</cdi>       <nresp>1</nresp>       <dist>329</dist>       <lat>4.31</lat>       <lon>-72.08</lon>       <name>Puerto Gait\\ufffd\\ufffd\\ufffd\\ufffdn</name>     </location>     <location name=\"San Juanito::Meta::Colombia\">       <cdi>3.0916</cdi>       <nresp>1</nresp>       <dist>295</dist>       <lat>4.51</lat>       <lon>-72.97</lon>       <name>San Juanito</name>     </location>     <location name=\"Villavicencio::Meta::Colombia\">       <cdi>3.7738</cdi>       <nresp>3</nresp>       <dist>337</dist>       <lat>4.15</lat>       <lon>-73.64</lon>       <name>Villavicencio</name>     </location>     <location name=\"Vista Hermosa::Meta::Colombia\">       <cdi>5.0476</cdi>       <nresp>2</nresp>       <dist>444</dist>       <lat>3.09</lat>       <lon>-73.75</lon>       <name>Vista Hermosa</name>     </location>     <location name=\"C\\ufffd\\ufffd\\ufffd\\ufffdcuta::Norte de Santander::Colombia\">       <cdi>3.4498</cdi>       <nresp>1</nresp>       <dist>206</dist>       <lat>7.88</lat>       <lon>-72.51</lon>       <name>C\\ufffd\\ufffd\\ufffd\\ufffdcuta</name>     </location>     <location name=\"El Zulia::Norte de Santander::Colombia\">       <cdi>3.0916</cdi>       <nresp>1</nresp>       <dist>207</dist>       <lat>7.94</lat>       <lon>-72.61</lon>       <name>El Zulia</name>     </location>     <location name=\"Puerto Santander::Norte de Santander::Colombia\">       <cdi>2.2372</cdi>       <nresp>1</nresp>       <dist>244</dist>       <lat>8.36</lat>       <lon>-72.41</lon>       <name>Puerto Santander</name>     </location>     <location name=\"Tib\\ufffd\\ufffd\\ufffd\\ufffd::Norte de Santander::Colombia\">       <cdi>3.4498</cdi>       <nresp>1</nresp>       <dist>261</dist>       <lat>8.64</lat>       <lon>-72.74</lon>       <name>Tib\\ufffd\\ufffd\\ufffd\\ufffd</name>     </location>     <location name=\"Armenia::Quindi\\ufffd\\ufffd\\ufffd\\ufffd::Colombia\">       <cdi>2.9633</cdi>       <nresp>3</nresp>       <dist>420</dist>       <lat>4.53</lat>       <lon>-75.69</lon>       <name>Armenia</name>     </location>     <location name=\"Calarc\\ufffd\\ufffd\\ufffd\\ufffd::Quindi\\ufffd\\ufffd\\ufffd\\ufffd::Colombia\">       <cdi>3.7738</cdi>       <nresp>1</nresp>       <dist>415</dist>       <lat>4.54</lat>       <lon>-75.64</lon>       <name>Calarc\\ufffd\\ufffd\\ufffd\\ufffd</name>     </location>     <location name=\"Salento::Quindi\\ufffd\\ufffd\\ufffd\\ufffd::Colombia\">       <cdi>3.0916</cdi>       <nresp>1</nresp>       <dist>403</dist>       <lat>4.64</lat>       <lon>-75.57</lon>       <name>Salento</name>     </location>     <location name=\"Pereira::Risaralda::Colombia\">       <cdi>3.9014</cdi>       <nresp>9</nresp>       <dist>402</dist>       <lat>4.81</lat>       <lon>-75.68</lon>       <name>Pereira</name>     </location>     <location name=\"Barrancabermeja::Santander::Colombia\">       <cdi>3.4498</cdi>       <nresp>1</nresp>       <dist>188</dist>       <lat>7.09</lat>       <lon>-73.85</lon>       <name>Barrancabermeja</name>     </location>     <location name=\"Bucaramanga::Santander::Colombia\">       <cdi>4.8427</cdi>       <nresp>13</nresp>       <dist>163</dist>       <lat>7.13</lat>       <lon>-73.13</lon>       <name>Bucaramanga</name>     </location>     <location name=\"Floridablanca::Santander::Colombia\">       <cdi>4.5324</cdi>       <nresp>5</nresp>       <dist>161</dist>       <lat>7.06</lat>       <lon>-73.09</lon>       <name>Floridablanca</name>     </location>     <location name=\"Flori\\ufffd\\ufffd\\ufffd\\ufffdn::Santander::Colombia\">       <cdi>4.3417</cdi>       <nresp>1</nresp>       <dist>220</dist>       <lat>5.80</lat>       <lon>-73.97</lon>       <name>Flori\\ufffd\\ufffd\\ufffd\\ufffdn</name>     </location>     <location name=\"Jord\\ufffd\\ufffd\\ufffd\\ufffdn::Santander::Colombia\">       <cdi>3.6156</cdi>       <nresp>3</nresp>       <dist>158</dist>       <lat>6.74</lat>       <lon>-73.10</lon>       <name>Jord\\ufffd\\ufffd\\ufffd\\ufffdn</name>     </location>     <location name=\"Piedecuesta::Santander::Colombia\">       <cdi>3.9738</cdi>       <nresp>3</nresp>       <dist>159</dist>       <lat>6.99</lat>       <lon>-73.05</lon>       <name>Piedecuesta</name>     </location>     <location name=\"Puerto Parra::Santander::Colombia\">       <cdi>2</cdi>       <nresp>1</nresp>       <dist>198</dist>       <lat>6.65</lat>       <lon>-74.06</lon>       <name>Puerto Parra</name>     </location>     <location name=\"Sabana de Torres::Santander::Colombia\">       <cdi>3.0916</cdi>       <nresp>1</nresp>       <dist>181</dist>       <lat>7.40</lat>       <lon>-73.49</lon>       <name>Sabana de Torres</name>     </location>     <location name=\"San Jos\\ufffd\\ufffd\\ufffd\\ufffd de Miranda::Santander::Colombia\">       <cdi>4.8282</cdi>       <nresp>1</nresp>       <dist>159</dist>       <lat>6.66</lat>       <lon>-72.74</lon>       <name>San Jos\\ufffd\\ufffd\\ufffd\\ufffd de Miranda</name>     </location>     <location name=\"Ibagu\\ufffd\\ufffd\\ufffd\\ufffd::Tolima::Colombia\">       <cdi>3.6156</cdi>       <nresp>4</nresp>       <dist>392</dist>       <lat>4.45</lat>       <lon>-75.24</lon>       <name>Ibagu\\ufffd\\ufffd\\ufffd\\ufffd</name>     </location>     <location name=\"Cali::Valle del Cauca::Colombia\">       <cdi>2.8839</cdi>       <nresp>7</nresp>       <dist>561</dist>       <lat>3.44</lat>       <lon>-76.52</lon>       <name>Cali</name>     </location>     <location name=\"Tulu\\ufffd\\ufffd\\ufffd\\ufffd::Valle del Cauca::Colombia\">       <cdi>3.7114</cdi>       <nresp>1</nresp>       <dist>491</dist>       <lat>4.09</lat>       <lon>-76.21</lon>       <name>Tulu\\ufffd\\ufffd\\ufffd\\ufffd</name>     </location>   </cdi> </cdidata> ", 
    "identity": {
        "subtype": "", 
        "is_error": false, 
        "version": "", 
        "protocol": "", 
        "language": "", 
        "service": "", 
        "has_dataset": false, 
        "has_metadata": false
    }, 
    "digest": "4d294f633166acb7898b6965b977e5a9", 
    "source_url": "http://earthquake.usgs.gov/earthquakes/dyfi/events/us/10001ldx/us/cdi_zip.xml"
}