{
    "content": "<cdidata>   <cdi type=\"city\">     <location name=\"Chiba::Chiba::Japan\">       <cdi>2.6912</cdi>       <nresp>1</nresp>       <dist>72</dist>       <lat>35.61</lat>       <lon>140.11</lon>       <name>Chiba</name>     </location>     <location name=\"Narita::Chiba::Japan\">       <cdi>3.2152</cdi>       <nresp>3</nresp>       <dist>62</dist>       <lat>35.79</lat>       <lon>140.32</lon>       <name>Narita</name>     </location>     <location name=\"\\ufffd\\ufffd\\ufffd\\ufffdamishirasato::Chiba::Japan\">       <cdi>2.2372</cdi>       <nresp>1</nresp>       <dist>61</dist>       <lat>35.52</lat>       <lon>140.31</lon>       <name>\\ufffd\\ufffd\\ufffd\\ufffdamishirasato</name>     </location>     <location name=\"Tsuchiura::Ibaraki::Japan\">       <cdi>2.2372</cdi>       <nresp>1</nresp>       <dist>84</dist>       <lat>36.09</lat>       <lon>140.19</lon>       <name>Tsuchiura</name>     </location>     <location name=\"Musashino::Tokio::Japan\">       <cdi>2</cdi>       <nresp>1</nresp>       <dist>114</dist>       <lat>35.71</lat>       <lon>139.58</lon>       <name>Musashino</name>     </location>     <location name=\"Tokyo::Tokio::Japan\">       <cdi>2</cdi>       <nresp>2</nresp>       <dist>98</dist>       <lat>35.67</lat>       <lon>139.77</lon>       <name>Tokyo</name>     </location>   </cdi> </cdidata> ", 
    "identity": {
        "subtype": "", 
        "is_error": false, 
        "version": "", 
        "protocol": "", 
        "language": "", 
        "service": "", 
        "has_dataset": false, 
        "has_metadata": false
    }, 
    "digest": "5c09308c19f9f92740d2fb78f6a783a2", 
    "source_url": "http://earthquake.usgs.gov/earthquakes/dyfi/events/us/c000ttya/us/cdi_zip.xml"
}